[{"fecha":"30-08-16","local_id":"1","local_nombre":"CRUZ VERDE ","comuna_nombre":"QUILLOTA","localidad_nombre":"QUILLOTA","local_direccion":"OHIGGINS 195, LOCAL 1","funcionamiento_hora_apertura":"08:30:00","funcionamiento_hora_cierre":"21:30:00","local_telefono":"+5633269467","local_lat":"-32.8794537","local_lng":"-71.24677","funcionamiento_dia":"martes","fk_region":"6","fk_comuna":"69","fk_localidad":"32"},{"fecha":"30-08-16","local_id":"2","local_nombre":"CRUZ VERDE","comuna_nombre":"LA CALERA","localidad_nombre":"LA CALERA","local_direccion":"J.J. PEREZ 202","funcionamiento_hora_apertura":"09:00:00","funcionamiento_hora_cierre":"21:00:00","local_telefono":"+56332724714","local_lat":"-32.7866201","local_lng":"-71.1898402","funcionamiento_dia":"martes","fk_region":"6","fk_comuna":"56","fk_localidad":"12"},{"fecha":"30-08-16","local_id":"3","local_nombre":"CRUZ VERDE","comuna_nombre":"LIMACHE","localidad_nombre":"LIMACHE","local_direccion":"URMENETA 99","funcionamiento_hora_apertura":"08:30:00","funcionamiento_hora_cierre":"21:30:00","local_telefono":"+5633415940","local_lat":"-32.9852528","local_lng":"-71.275526","funcionamiento_dia":"martes","fk_region":"6","fk_comuna":"59","fk_localidad":"17"},{"fecha":"30-08-16","local_id":"4","local_nombre":"CRUZ VERDE","comuna_nombre":"LIMACHE","localidad_nombre":"LIMACHE","local_direccion":"REPUBLICA 281","funcionamiento_hora_apertura":"09:00:00","funcionamiento_hora_cierre":"21:30:00","local_telefono":"+5633418343","local_lat":"-33.0021303","local_lng":"-71.265572","funcionamiento_dia":"martes","fk_region":"6","fk_comuna":"59","fk_localidad":"17"},{"fecha":"30-08-16","local_id":"5","local_nombre":"AHUMADA","comuna_nombre":"LA CALERA","localidad_nombre":"LA CALERA","local_direccion":"J J PEREZ 199","funcionamiento_hora_apertura":"09:00:00","funcionamiento_hora_cierre":"21:00:00","local_telefono":"+563326316573","local_lat":"-32.789070","local_lng":"-71.189436","funcionamiento_dia":"martes","fk_region":"6","fk_comuna":"56","fk_localidad":"12"},{"fecha":"30-08-16","local_id":"6","local_nombre":"AHUMADA","comuna_nombre":"QUILLOTA","localidad_nombre":"QUILLOTA","local_direccion":"CHACABUCO 274-278","funcionamiento_hora_apertura":"08:30:00","funcionamiento_hora_cierre":"23:00:00","local_telefono":"+563302-26313154","local_lat":"-32.8815838","local_lng":"-71.2599575","funcionamiento_dia":"martes","fk_region":"6","fk_comuna":"69","fk_localidad":"32"},{"fecha":"30-08-16","local_id":"8","local_nombre":"AHUMADA","comuna_nombre":"LA CALERA","localidad_nombre":"LA CALERA","local_direccion":"PROLONGACION JJ. PEREZ 12010","funcionamiento_hora_apertura":"09:30:00","funcionamiento_hora_cierre":"21:30:00","local_telefono":"+56026313722","local_lat":"-32.7860976","local_lng":"-71.1899306","funcionamiento_dia":"martes","fk_region":"6","fk_comuna":"56","fk_localidad":"12"},{"fecha":"30-08-16","local_id":"9","local_nombre":"AHUMADA","comuna_nombre":"QUILLOTA","localidad_nombre":"QUILLOTA","local_direccion":"AV. 21 DE MAYO 311","funcionamiento_hora_apertura":"09:00:00","funcionamiento_hora_cierre":"22:00:00","local_telefono":"+5633314997","local_lat":"-32.8702903","local_lng":"-71.240293","funcionamiento_dia":"martes","fk_region":"6","fk_comuna":"69","fk_localidad":"32"},{"fecha":"30-08-16","local_id":"10","local_nombre":"AHUMADA","comuna_nombre":"QUILLOTA","localidad_nombre":"QUILLOTA","local_direccion":"O`HIGGINS 114-116","funcionamiento_hora_apertura":"10:00:00","funcionamiento_hora_cierre":"22:00:00","local_telefono":"+563326313154","local_lat":"-32.8784609","local_lng":"-71.2467205","funcionamiento_dia":"martes","fk_region":"6","fk_comuna":"69","fk_localidad":"32"},{"fecha":"30-08-16","local_id":"11","local_nombre":"SALCOBRAND","comuna_nombre":"LA CALERA","localidad_nombre":"LA CALERA","local_direccion":"J.J. PEREZ 205","funcionamiento_hora_apertura":"09:00:00","funcionamiento_hora_cierre":"21:30:00","local_telefono":"+56332225450","local_lat":"-32.7866307","local_lng":"-71.1898404","funcionamiento_dia":"martes","fk_region":"6","fk_comuna":"56","fk_localidad":"12"},{"fecha":"30-08-16","local_id":"12","local_nombre":"SALCOBRAND","comuna_nombre":"QUILLOTA","localidad_nombre":"QUILLOTA","local_direccion":"FREIRE 90","funcionamiento_hora_apertura":"09:00:00","funcionamiento_hora_cierre":"21:00:00","local_telefono":"+56332314885","local_lat":"-32.878073","local_lng":"-71.245307","funcionamiento_dia":"martes","fk_region":"6","fk_comuna":"69","fk_localidad":"32"},{"fecha":"30-08-16","local_id":"13","local_nombre":"SALCOBRAND","comuna_nombre":"QUILLOTA","localidad_nombre":"QUILLOTA","local_direccion":"CHACABUCO 299","funcionamiento_hora_apertura":"09:30:00","funcionamiento_hora_cierre":"21:30:00","local_telefono":"+56332269530","local_lat":"-32.8817558","local_lng":"-71.2600344","funcionamiento_dia":"martes","fk_region":"6","fk_comuna":"69","fk_localidad":"32"},{"fecha":"30-08-16","local_id":"14","local_nombre":"KNOP","comuna_nombre":"QUILLOTA","localidad_nombre":"QUILLOTA","local_direccion":"CHACABUCO 225","funcionamiento_hora_apertura":"10:00:00","funcionamiento_hora_cierre":"21:00:00","local_telefono":"+56332315136","local_lat":"-32.8813972","local_lng":"-71.2598723","funcionamiento_dia":"martes","fk_region":"6","fk_comuna":"69","fk_localidad":"32"},{"fecha":"30-08-16","local_id":"15","local_nombre":"KNOP","comuna_nombre":"LA CALERA","localidad_nombre":"LA CALERA","local_direccion":"J.J. PEREZ 247","funcionamiento_hora_apertura":"10:00:00","funcionamiento_hora_cierre":"21:00:00","local_telefono":"+56332229081","local_lat":"-32.7867399","local_lng":"-71.1898217","funcionamiento_dia":"martes","fk_region":"6","fk_comuna":"56","fk_localidad":"12"},{"fecha":"30-08-16","local_id":"16","local_nombre":"ARTIFICIO 2","comuna_nombre":"LA CALERA","localidad_nombre":"LA CALERA","local_direccion":"PRAT N\u00b0 570","funcionamiento_hora_apertura":"09:00:00","funcionamiento_hora_cierre":"22:00:00","local_telefono":"+56332296686","local_lat":"-32.7880353","local_lng":"-71.1887337","funcionamiento_dia":"martes","fk_region":"6","fk_comuna":"56","fk_localidad":"12"},{"fecha":"30-08-16","local_id":"17","local_nombre":"CRUZ VERDE","comuna_nombre":"QUILLOTA","localidad_nombre":"QUILLOTA","local_direccion":"CHACABUCO 281","funcionamiento_hora_apertura":"09:00:00","funcionamiento_hora_cierre":"21:00:00","local_telefono":"+56332319578","local_lat":"-32.8816272","local_lng":"-71.2599753","funcionamiento_dia":"martes","fk_region":"6","fk_comuna":"69","fk_localidad":"32"},{"fecha":"30-08-16","local_id":"19","local_nombre":"SALCOBRAND","comuna_nombre":"QUILLOTA","localidad_nombre":"QUILLOTA","local_direccion":"O\u00b4HIGGINS 157","funcionamiento_hora_apertura":"09:30:00","funcionamiento_hora_cierre":"21:00:00","local_telefono":"+56332314885","local_lat":"-32.878105","local_lng":"-71.246512","funcionamiento_dia":"martes","fk_region":"6","fk_comuna":"69","fk_localidad":"32"},{"fecha":"30-08-16","local_id":"20","local_nombre":"SALCOBRAND","comuna_nombre":"LIMACHE","localidad_nombre":"LIMACHE","local_direccion":"URMENETA 68","funcionamiento_hora_apertura":"09:00:00","funcionamiento_hora_cierre":"22:00:00","local_telefono":"+56415298","local_lat":"-32.9850677","local_lng":"-71.2759231","funcionamiento_dia":"martes","fk_region":"6","fk_comuna":"59","fk_localidad":"17"},{"fecha":"30-08-16","local_id":"21","local_nombre":"DR. SIMI","comuna_nombre":"LA CALERA","localidad_nombre":"LA CALERA","local_direccion":"CARRERA 580","funcionamiento_hora_apertura":"09:00:00","funcionamiento_hora_cierre":"21:00:00","local_telefono":"+56332342337","local_lat":"-32.7870089","local_lng":"-71.1884747","funcionamiento_dia":"martes","fk_region":"6","fk_comuna":"56","fk_localidad":"12"},{"fecha":"30-08-16","local_id":"22","local_nombre":"HOSPITAL 1","comuna_nombre":"LA CALERA","localidad_nombre":"LA CALERA","local_direccion":"CARRERA N\u00b0 737","funcionamiento_hora_apertura":"10:30:00","funcionamiento_hora_cierre":"21:30:00","local_telefono":"+56332290054","local_lat":"-32.7873925","local_lng":"-71.1917955","funcionamiento_dia":"martes","fk_region":"6","fk_comuna":"56","fk_localidad":"12"},{"fecha":"30-08-16","local_id":"23","local_nombre":"SAN NICOLAS","comuna_nombre":"LA CALERA","localidad_nombre":"LA CALERA","local_direccion":"J.J. PEREZ N\u00b0 396","funcionamiento_hora_apertura":"09:00:00","funcionamiento_hora_cierre":"21:00:00","local_telefono":"+56332229552","local_lat":"-32.7871245","local_lng":"-71.1897538","funcionamiento_dia":"martes","fk_region":"6","fk_comuna":"56","fk_localidad":"12"},{"fecha":"30-08-16","local_id":"24","local_nombre":"TAMANACO","comuna_nombre":"LA CALERA","localidad_nombre":"LA CALERA","local_direccion":"ALDUNATE 222","funcionamiento_hora_apertura":"09:30:00","funcionamiento_hora_cierre":"21:30:00","local_telefono":"+56332222201","local_lat":"-32.7873149","local_lng":"-71.1909537","funcionamiento_dia":"martes","fk_region":"6","fk_comuna":"56","fk_localidad":"12"},{"fecha":"30-08-16","local_id":"25","local_nombre":"LA CRUZ","comuna_nombre":"LA CRUZ","localidad_nombre":"LA CRUZ","local_direccion":"21 DE MAYO N\u00b0 5481","funcionamiento_hora_apertura":"09:00:00","funcionamiento_hora_cierre":"22:00:00","local_telefono":"+56332254902","local_lat":"-32.8347377","local_lng":"-71.2276745","funcionamiento_dia":"martes","fk_region":"6","fk_comuna":"57","fk_localidad":"13"},{"fecha":"30-08-16","local_id":"26","local_nombre":"ECOFARMACIAS","comuna_nombre":"LIMACHE","localidad_nombre":"LIMACHE","local_direccion":"URMENETA 84","funcionamiento_hora_apertura":"09:00:00","funcionamiento_hora_cierre":"21:00:00","local_telefono":"+56342303","local_lat":"-32.9851671","local_lng":"-71.275712","funcionamiento_dia":"martes","fk_region":"6","fk_comuna":"59","fk_localidad":"17"},{"fecha":"30-08-16","local_id":"27","local_nombre":"CRUZ VERDE","comuna_nombre":"LIMACHE","localidad_nombre":"LIMACHE","local_direccion":"URMENETA 96","funcionamiento_hora_apertura":"09:30:00","funcionamiento_hora_cierre":"21:30:00","local_telefono":"+56414551","local_lat":"-32.9852417","local_lng":"-71.2755537","funcionamiento_dia":"martes","fk_region":"6","fk_comuna":"59","fk_localidad":"17"},{"fecha":"30-08-16","local_id":"28","local_nombre":"DR. SIMI","comuna_nombre":"LIMACHE","localidad_nombre":"LIMACHE","local_direccion":"PRAT 200","funcionamiento_hora_apertura":"09:00:00","funcionamiento_hora_cierre":"21:00:00","local_telefono":"+56419182","local_lat":"-32.984521038417135","local_lng":"-71.27712965011597","funcionamiento_dia":"martes","fk_region":"6","fk_comuna":"59","fk_localidad":"17"},{"fecha":"30-08-16","local_id":"29","local_nombre":"ECOFARMACIAS","comuna_nombre":"QUILLOTA","localidad_nombre":"QUILLOTA","local_direccion":"O\u00b4HIGGINS 176, LB2","funcionamiento_hora_apertura":"09:00:00","funcionamiento_hora_cierre":"21:00:00","local_telefono":"+56332342235","local_lat":"-32.878924","local_lng":"-71.246732","funcionamiento_dia":"martes","fk_region":"6","fk_comuna":"69","fk_localidad":"32"},{"fecha":"30-08-16","local_id":"30","local_nombre":"SAN IGNACIO","comuna_nombre":"QUILLOTA","localidad_nombre":"QUILLOTA","local_direccion":"LA CONCEPCION N\u00b0 990","funcionamiento_hora_apertura":"10:30:00","funcionamiento_hora_cierre":"22:00:00","local_telefono":"+56332319407","local_lat":"-32.8800783","local_lng":"-71.2574665","funcionamiento_dia":"martes","fk_region":"6","fk_comuna":"69","fk_localidad":"32"},{"fecha":"30-08-16","local_id":"31","local_nombre":"DR. SIMI","comuna_nombre":"QUILLOTA","localidad_nombre":"QUILLOTA","local_direccion":"O\u00b4HIGGINS 186","funcionamiento_hora_apertura":"09:00:00","funcionamiento_hora_cierre":"21:00:00","local_telefono":"+56332258396","local_lat":"-32.879201","local_lng":"-71.246729","funcionamiento_dia":"martes","fk_region":"6","fk_comuna":"69","fk_localidad":"32"},{"fecha":"30-08-16","local_id":"32","local_nombre":"ITALIA","comuna_nombre":"QUILLOTA","localidad_nombre":"QUILLOTA","local_direccion":"FREIRE N\u00b0 57","funcionamiento_hora_apertura":"09:30:00","funcionamiento_hora_cierre":"20:30:00","local_telefono":"+56332310178","local_lat":"-32.9861311","local_lng":"-71.2627086","funcionamiento_dia":"martes","fk_region":"6","fk_comuna":"69","fk_localidad":"32"},{"fecha":"30-08-16","local_id":"34","local_nombre":"SU FARMACIA","comuna_nombre":"OLMUE","localidad_nombre":"OLMUE","local_direccion":"PRAT 4863","funcionamiento_hora_apertura":"09:30:00","funcionamiento_hora_cierre":"22:00:00","local_telefono":"+56","local_lat":"-32.998139","local_lng":"-71.189278","funcionamiento_dia":"martes","fk_region":"6","fk_comuna":"63","fk_localidad":"24"},{"fecha":"30-08-16","local_id":"36","local_nombre":"SALCOBRAND","comuna_nombre":"LA CALERA","localidad_nombre":"LA CALERA","local_direccion":"J.J. PEREZ 152","funcionamiento_hora_apertura":"09:00:00","funcionamiento_hora_cierre":"21:30:00","local_telefono":"+56332228236","local_lat":"-32.7886015","local_lng":"-71.1894997","funcionamiento_dia":"martes","fk_region":"6","fk_comuna":"56","fk_localidad":"12"},{"fecha":"30-08-16","local_id":"37","local_nombre":"SALCOBRAND","comuna_nombre":"LA CRUZ","localidad_nombre":"LA CRUZ","local_direccion":"21 DE MAYO 5628, LOCAL 1, LA CRUZ","funcionamiento_hora_apertura":"09:00:00","funcionamiento_hora_cierre":"22:00:00","local_telefono":"+56332320677","local_lat":"-32.8344066","local_lng":"-71.2282133","funcionamiento_dia":"martes","fk_region":"6","fk_comuna":"57","fk_localidad":"13"},{"fecha":"30-08-16","local_id":"39","local_nombre":"CRUZ VERDE","comuna_nombre":"LIMACHE","localidad_nombre":"LIMACHE","local_direccion":"PALMIRA ROMANO 405","funcionamiento_hora_apertura":"08:30:00","funcionamiento_hora_cierre":"22:00:00","local_telefono":"+56334665","local_lat":"-33.00222360279234","local_lng":"-71.26806378364563","funcionamiento_dia":"martes","fk_region":"6","fk_comuna":"59","fk_localidad":"17"},{"fecha":"30-08-16","local_id":"40","local_nombre":"EL MELON","comuna_nombre":"NOGALES","localidad_nombre":"NOGALES","local_direccion":"ISABEL BROWN N\u00b0 123","funcionamiento_hora_apertura":"12:00:00","funcionamiento_hora_cierre":"21:00:00","local_telefono":"+5633034 - 2591629","local_lat":"-32.68848658","local_lng":"-71.21414007","funcionamiento_dia":"martes","fk_region":"6","fk_comuna":"62","fk_localidad":"23"},{"fecha":"30-08-16","local_id":"42","local_nombre":"AHUMADA","comuna_nombre":"QUILPUE","localidad_nombre":"QUILPUE","local_direccion":"CLAUDIO VICU\u00d1A N\u00b0 700","funcionamiento_hora_apertura":"08:00:00","funcionamiento_hora_cierre":"00:00:00","local_telefono":"+56","local_lat":"-33.047371","local_lng":"-71.441333","funcionamiento_dia":"martes","fk_region":"6","fk_comuna":"70","fk_localidad":"33"},{"fecha":"30-08-16","local_id":"43","local_nombre":"AHUMADA","comuna_nombre":"QUILPUE","localidad_nombre":"QUILPUE","local_direccion":"DIEGO PORTALES N\u00b0 802","funcionamiento_hora_apertura":"08:30:00","funcionamiento_hora_cierre":"22:00:00","local_telefono":"+563219","local_lat":"-33.0467502","local_lng":"-71.4417509","funcionamiento_dia":"martes","fk_region":"6","fk_comuna":"70","fk_localidad":"33"},{"fecha":"30-08-16","local_id":"44","local_nombre":"AHUMADA","comuna_nombre":"QUILPUE","localidad_nombre":"QUILPUE","local_direccion":"AV.FREIRE N\u00b0 2414 LOCAL 1082","funcionamiento_hora_apertura":"09:00:00","funcionamiento_hora_cierre":"23:00:00","local_telefono":"+56650226316549","local_lat":"-33.0438908","local_lng":"-71.4201588","funcionamiento_dia":"martes","fk_region":"6","fk_comuna":"70","fk_localidad":"33"},{"fecha":"30-08-16","local_id":"46","local_nombre":"CRUZ VERDE","comuna_nombre":"QUILPUE","localidad_nombre":"QUILPUE","local_direccion":"LOS CARRERA N\u00b0 721 L- 9","funcionamiento_hora_apertura":"09:00:00","funcionamiento_hora_cierre":"22:00:00","local_telefono":"+560322913124","local_lat":"-33.0481681","local_lng":"-71.4430025","funcionamiento_dia":"martes","fk_region":"6","fk_comuna":"70","fk_localidad":"33"},{"fecha":"30-08-16","local_id":"47","local_nombre":"CRUZ VERDE","comuna_nombre":"QUILPUE","localidad_nombre":"QUILPUE","local_direccion":"CLAUDIO VICU\u00d1A N\u00b0 806","funcionamiento_hora_apertura":"10:00:00","funcionamiento_hora_cierre":"19:00:00","local_telefono":"+5643547-8","local_lat":"-33.046376","local_lng":"-71.442513","funcionamiento_dia":"martes","fk_region":"6","fk_comuna":"70","fk_localidad":"33"},{"fecha":"30-08-16","local_id":"49","local_nombre":"DR. SIMI","comuna_nombre":"QUILPUE","localidad_nombre":"QUILPUE","local_direccion":"VICU\u00d1A MACKENNA 777-D","funcionamiento_hora_apertura":"09:00:00","funcionamiento_hora_cierre":"21:00:00","local_telefono":"+56322910271","local_lat":"-33.0464714","local_lng":"-71.44460959999998","funcionamiento_dia":"martes","fk_region":"6","fk_comuna":"70","fk_localidad":"33"},{"fecha":"30-08-16","local_id":"50","local_nombre":"ECOFARMACIAS","comuna_nombre":"QUILPUE","localidad_nombre":"QUILPUE","local_direccion":"BLANCO N\u00b0 937","funcionamiento_hora_apertura":"09:30:00","funcionamiento_hora_cierre":"21:30:00","local_telefono":"+5641127","local_lat":"-33.046177","local_lng":"-71.4408533","funcionamiento_dia":"martes","fk_region":"6","fk_comuna":"70","fk_localidad":"33"},{"fecha":"30-08-16","local_id":"51","local_nombre":"ECOFARMACIAS","comuna_nombre":"QUILPUE","localidad_nombre":"QUILPUE","local_direccion":"PORTALES N\u00b0 776","funcionamiento_hora_apertura":"09:00:00","funcionamiento_hora_cierre":"22:00:00","local_telefono":"+5641405","local_lat":"-33.0471715","local_lng":"-71.4421764","funcionamiento_dia":"martes","fk_region":"6","fk_comuna":"70","fk_localidad":"33"},{"fecha":"30-08-16","local_id":"52","local_nombre":"ECOFARMACIAS","comuna_nombre":"QUILPUE","localidad_nombre":"QUILPUE","local_direccion":"CLAUDIO VICU\u00d1A N \u00b0 651","funcionamiento_hora_apertura":"09:00:00","funcionamiento_hora_cierre":"21:30:00","local_telefono":"+56392911449","local_lat":"-33.04583360474577","local_lng":"-71.44319237923736","funcionamiento_dia":"martes","fk_region":"6","fk_comuna":"70","fk_localidad":"33"},{"fecha":"30-08-16","local_id":"53","local_nombre":"KNOP","comuna_nombre":"QUILPUE","localidad_nombre":"QUILPUE","local_direccion":"THOMPSON N\u00b0 1491","funcionamiento_hora_apertura":"09:00:00","funcionamiento_hora_cierre":"19:00:00","local_telefono":"+56322910016","local_lat":"-33.0543271","local_lng":"-71.4387096","funcionamiento_dia":"martes","fk_region":"6","fk_comuna":"70","fk_localidad":"33"},{"fecha":"30-08-16","local_id":"54","local_nombre":"KNOP","comuna_nombre":"QUILPUE","localidad_nombre":"QUILPUE","local_direccion":"CLAUDIO VICU\u00d1A N\u00b0 928","funcionamiento_hora_apertura":"09:00:00","funcionamiento_hora_cierre":"21:00:00","local_telefono":"+560322917566","local_lat":"-33.047173","local_lng":"-71.441710","funcionamiento_dia":"martes","fk_region":"6","fk_comuna":"70","fk_localidad":"33"},{"fecha":"30-08-16","local_id":"55","local_nombre":"SALCOBRAND","comuna_nombre":"QUILPUE","localidad_nombre":"QUILPUE","local_direccion":"CLAUDIO VICU\u00d1A N\u00b0 790","funcionamiento_hora_apertura":"08:30:00","funcionamiento_hora_cierre":"23:00:00","local_telefono":"+56322913769","local_lat":"-33.046487","local_lng":"-71.442591","funcionamiento_dia":"martes","fk_region":"6","fk_comuna":"70","fk_localidad":"33"},{"fecha":"30-08-16","local_id":"56","local_nombre":"CRUZ VERDE","comuna_nombre":"QUILPUE","localidad_nombre":"QUILPUE","local_direccion":"RAM\u00d3N FREIRE N\u00b0 2414, LOCAL 1028, BELLOTO","funcionamiento_hora_apertura":"08:30:00","funcionamiento_hora_cierre":"22:30:00","local_telefono":"+561","local_lat":"-33.043524","local_lng":"-71.421327","funcionamiento_dia":"martes","fk_region":"6","fk_comuna":"70","fk_localidad":"33"},{"fecha":"30-08-16","local_id":"57","local_nombre":"CRUZ VERDE","comuna_nombre":"QUILPUE","localidad_nombre":"QUILPUE","local_direccion":"AV. CLAUDIO VICU\u00d1A N\u00b0 791","funcionamiento_hora_apertura":"08:30:00","funcionamiento_hora_cierre":"22:30:00","local_telefono":"+560322924381","local_lat":"-33.046395","local_lng":"-71.442481","funcionamiento_dia":"martes","fk_region":"6","fk_comuna":"70","fk_localidad":"33"},{"fecha":"30-08-16","local_id":"58","local_nombre":"CRUZ VERDE","comuna_nombre":"QUILPUE","localidad_nombre":"QUILPUE","local_direccion":"AV. FREIRE N\u00b0 471, VILLA HILTON BELLOTO","funcionamiento_hora_apertura":"09:00:00","funcionamiento_hora_cierre":"22:30:00","local_telefono":"+5643523","local_lat":"-33.049725","local_lng":"-71.431091","funcionamiento_dia":"martes","fk_region":"6","fk_comuna":"70","fk_localidad":"33"},{"fecha":"30-08-16","local_id":"59","local_nombre":"AHUMADA","comuna_nombre":"QUILPUE","localidad_nombre":"LOS PINOS","local_direccion":"LAS BARRANCAS 2491 L 3C Y 4D","funcionamiento_hora_apertura":"08:30:00","funcionamiento_hora_cierre":"22:30:00","local_telefono":"+566313553","local_lat":"-33.0660344","local_lng":"-71.4226168","funcionamiento_dia":"martes","fk_region":"6","fk_comuna":"70","fk_localidad":"54"},{"fecha":"30-08-16","local_id":"61","local_nombre":"ECONOMICA","comuna_nombre":"PUCHUNCAVI","localidad_nombre":"PUCHUNCAVI","local_direccion":"SANTIAGO TORRES N\u00b0 149 PUCHUNCAVI","funcionamiento_hora_apertura":"09:00:00","funcionamiento_hora_cierre":"21:00:00","local_telefono":"+56322791499","local_lat":"-32.7261719","local_lng":"-71.4144314","funcionamiento_dia":"martes","fk_region":"6","fk_comuna":"67","fk_localidad":"30"},{"fecha":"30-08-16","local_id":"63","local_nombre":"CRUZ VERDE","comuna_nombre":"QUINTERO","localidad_nombre":"QUINTERO","local_direccion":"CABO ORTIZ N\u00b0 189","funcionamiento_hora_apertura":"09:00:00","funcionamiento_hora_cierre":"22:00:00","local_telefono":"+56322931269","local_lat":"-32.7848096","local_lng":"-71.5264246","funcionamiento_dia":"martes","fk_region":"6","fk_comuna":"71","fk_localidad":"34"},{"fecha":"30-08-16","local_id":"64","local_nombre":"CRUZ VERDE","comuna_nombre":"QUINTERO","localidad_nombre":"QUINTERO","local_direccion":"AV.NORMANDIE N\u00b0 2017","funcionamiento_hora_apertura":"09:00:00","funcionamiento_hora_cierre":"22:00:00","local_telefono":"+56322932008","local_lat":"-32.7902078","local_lng":"-71.5266504","funcionamiento_dia":"martes","fk_region":"6","fk_comuna":"71","fk_localidad":"34"},{"fecha":"30-08-16","local_id":"65","local_nombre":"ECONOMICA","comuna_nombre":"QUINTERO","localidad_nombre":"QUINTERO","local_direccion":"PILOTO ALCAYAGA N\u00b0 1919","funcionamiento_hora_apertura":"09:00:00","funcionamiento_hora_cierre":"21:30:00","local_telefono":"+56322932576","local_lat":"-32.7852776","local_lng":"-71.5267166","funcionamiento_dia":"martes","fk_region":"6","fk_comuna":"71","fk_localidad":"34"},{"fecha":"30-08-16","local_id":"66","local_nombre":"ECO NATURA","comuna_nombre":"QUINTERO","localidad_nombre":"QUINTERO","local_direccion":"21 DE MAYO N\u00b0 1551 L-1 Y 2","funcionamiento_hora_apertura":"10:00:00","funcionamiento_hora_cierre":"20:00:00","local_telefono":"+56322934036","local_lat":"-32.7794181","local_lng":"-71.5269182","funcionamiento_dia":"martes","fk_region":"6","fk_comuna":"71","fk_localidad":"34"},{"fecha":"30-08-16","local_id":"67","local_nombre":"DR. SIMI","comuna_nombre":"QUINTERO","localidad_nombre":"QUINTERO","local_direccion":"AV. NORMADIE 2065","funcionamiento_hora_apertura":"09:00:00","funcionamiento_hora_cierre":"21:00:00","local_telefono":"+56322934798","local_lat":"-32.7902078","local_lng":"-71.5266504","funcionamiento_dia":"martes","fk_region":"6","fk_comuna":"71","fk_localidad":"34"},{"fecha":"30-08-16","local_id":"68","local_nombre":"AHUMADA","comuna_nombre":"VILLA ALEMANA","localidad_nombre":"VILLA ALEMANA","local_direccion":"AV. VALPARAISO N\u00b0 702","funcionamiento_hora_apertura":"08:00:00","funcionamiento_hora_cierre":"00:00:00","local_telefono":"+560026313159","local_lat":"-33.0443102","local_lng":"-71.3739533","funcionamiento_dia":"martes","fk_region":"6","fk_comuna":"79","fk_localidad":"40"},{"fecha":"30-08-16","local_id":"70","local_nombre":"DR. SIMI","comuna_nombre":"VILLA ALEMANA","localidad_nombre":"VILLA ALEMANA","local_direccion":"LATORRE N\u00b0 17, LOCAL 1","funcionamiento_hora_apertura":"09:00:00","funcionamiento_hora_cierre":"21:00:00","local_telefono":"+5657245","local_lat":"-33.044048","local_lng":"-71.373882","funcionamiento_dia":"martes","fk_region":"6","fk_comuna":"79","fk_localidad":"40"},{"fecha":"30-08-16","local_id":"71","local_nombre":"ECOFARMACIAS","comuna_nombre":"VILLA ALEMANA","localidad_nombre":"VILLA ALEMANA","local_direccion":"AV.VALPARAISO N\u00b0 855","funcionamiento_hora_apertura":"09:00:00","funcionamiento_hora_cierre":"22:00:00","local_telefono":"+5641409","local_lat":"-33.0443698","local_lng":"-71.3759721","funcionamiento_dia":"martes","fk_region":"6","fk_comuna":"79","fk_localidad":"40"},{"fecha":"30-08-16","local_id":"72","local_nombre":"ECOFARMACIAS","comuna_nombre":"VILLA ALEMANA","localidad_nombre":"VILLA ALEMANA","local_direccion":"LATORRE N\u00b0 51","funcionamiento_hora_apertura":"09:00:00","funcionamiento_hora_cierre":"20:30:00","local_telefono":"+5643322959620","local_lat":"-33.043192","local_lng":"-71.373588","funcionamiento_dia":"martes","fk_region":"6","fk_comuna":"79","fk_localidad":"40"},{"fecha":"30-08-16","local_id":"73","local_nombre":"SALCOBRAND","comuna_nombre":"VILLA ALEMANA","localidad_nombre":"VILLA ALEMANA","local_direccion":"LATORRE N\u00b0 2 Y 6","funcionamiento_hora_apertura":"08:30:00","funcionamiento_hora_cierre":"22:30:00","local_telefono":"+56322959620","local_lat":"-33.044161","local_lng":"-71.373727","funcionamiento_dia":"martes","fk_region":"6","fk_comuna":"79","fk_localidad":"40"},{"fecha":"30-08-16","local_id":"74","local_nombre":"SALCOBRAND","comuna_nombre":"VILLA ALEMANA","localidad_nombre":"VILLA ALEMANA","local_direccion":"LATORRE N\u00b0 13","funcionamiento_hora_apertura":"09:00:00","funcionamiento_hora_cierre":"21:30:00","local_telefono":"+56322531764","local_lat":"-33.044099","local_lng":"-71.373892","funcionamiento_dia":"martes","fk_region":"6","fk_comuna":"79","fk_localidad":"40"},{"fecha":"30-08-16","local_id":"75","local_nombre":"CRUZ VERDE","comuna_nombre":"VILLA ALEMANA","localidad_nombre":"VILLA ALEMANA","local_direccion":"AV. VALPARA\u00cdSO N\u00b0 664","funcionamiento_hora_apertura":"09:00:00","funcionamiento_hora_cierre":"22:00:00","local_telefono":"+5657566","local_lat":"-33.0442947","local_lng":"-71.3735657","funcionamiento_dia":"martes","fk_region":"6","fk_comuna":"79","fk_localidad":"40"},{"fecha":"30-08-16","local_id":"76","local_nombre":"SALCOBRAND","comuna_nombre":"VILLA ALEMANA","localidad_nombre":"VILLA ALEMANA","local_direccion":"AV. VALPARA\u00cdSO N\u00b0 1982, LOCAL N\u00b07","funcionamiento_hora_apertura":"09:00:00","funcionamiento_hora_cierre":"22:00:00","local_telefono":"+5634322944340","local_lat":"-33.045357","local_lng":"-71.390598","funcionamiento_dia":"martes","fk_region":"6","fk_comuna":"79","fk_localidad":"40"},{"fecha":"30-08-16","local_id":"77","local_nombre":"CRUZ VERDE","comuna_nombre":"VILLA ALEMANA","localidad_nombre":"VILLA ALEMANA","local_direccion":"AV. VALPARA\u00cdSO N\u00b0 691","funcionamiento_hora_apertura":"09:00:00","funcionamiento_hora_cierre":"21:30:00","local_telefono":"+5633462","local_lat":"-33.044304","local_lng":"-71.3738339","funcionamiento_dia":"martes","fk_region":"6","fk_comuna":"79","fk_localidad":"40"},{"fecha":"30-08-16","local_id":"79","local_nombre":"AHUMADA","comuna_nombre":"VI\u00d1A DEL MAR","localidad_nombre":"PLAN DE VI\u00d1A","local_direccion":"AV. VALPARAISO N\u00b0 505 C\/ETCHEVERS","funcionamiento_hora_apertura":"08:00:00","funcionamiento_hora_cierre":"23:00:00","local_telefono":"+56026313141","local_lat":"-33.024380","local_lng":"-71.555380","funcionamiento_dia":"martes","fk_region":"6","fk_comuna":"80","fk_localidad":"28"},{"fecha":"30-08-16","local_id":"81","local_nombre":"AHUMADA","comuna_nombre":"VI\u00d1A DEL MAR","localidad_nombre":"PLAN DE VI\u00d1A","local_direccion":"AV. LIBERTAD N\u00b0 335","funcionamiento_hora_apertura":"09:00:00","funcionamiento_hora_cierre":"22:30:00","local_telefono":"+560226313145","local_lat":"-33.01829534","local_lng":"-71.55045811","funcionamiento_dia":"martes","fk_region":"6","fk_comuna":"80","fk_localidad":"28"},{"fecha":"30-08-16","local_id":"82","local_nombre":"AHUMADA","comuna_nombre":"VI\u00d1A DEL MAR","localidad_nombre":"PLAN DE VI\u00d1A","local_direccion":"ALVAREZ N\u00b0 1398","funcionamiento_hora_apertura":"08:30:00","funcionamiento_hora_cierre":"22:00:00","local_telefono":"+56026313146","local_lat":"-33.028583","local_lng":"-71.543464","funcionamiento_dia":"martes","fk_region":"6","fk_comuna":"80","fk_localidad":"28"},{"fecha":"30-08-16","local_id":"83","local_nombre":"AHUMADA","comuna_nombre":"VI\u00d1A DEL MAR","localidad_nombre":"RE\u00d1ACA","local_direccion":"AV.RAFAEL SOTOMAYOR N\u00b0230","funcionamiento_hora_apertura":"09:00:00","funcionamiento_hora_cierre":"22:00:00","local_telefono":"+56026313153","local_lat":"-32.97008634","local_lng":"-71.5417586","funcionamiento_dia":"martes","fk_region":"6","fk_comuna":"80","fk_localidad":"36"},{"fecha":"30-08-16","local_id":"84","local_nombre":"AHUMADA","comuna_nombre":"VI\u00d1A DEL MAR","localidad_nombre":"PLAN DE VI\u00d1A","local_direccion":"AV. VALPARAISO 720","funcionamiento_hora_apertura":"08:30:00","funcionamiento_hora_cierre":"22:00:00","local_telefono":"+560202- 26313226","local_lat":"-33.025130","local_lng":"-71.552600","funcionamiento_dia":"martes","fk_region":"6","fk_comuna":"80","fk_localidad":"28"},{"fecha":"30-08-16","local_id":"85","local_nombre":"AHUMADA","comuna_nombre":"VI\u00d1A DEL MAR","localidad_nombre":"PLAN DE VI\u00d1A","local_direccion":"1 NORTE N\u00b0 2901 L - 4018 (JUMBO)","funcionamiento_hora_apertura":"08:30:00","funcionamiento_hora_cierre":"22:30:00","local_telefono":"+56026313238","local_lat":"-33.036248","local_lng":"-71.523945","funcionamiento_dia":"martes","fk_region":"6","fk_comuna":"80","fk_localidad":"28"},{"fecha":"30-08-16","local_id":"86","local_nombre":"AHUMADA","comuna_nombre":"VI\u00d1A DEL MAR","localidad_nombre":"PLAN DE VI\u00d1A","local_direccion":"8 NORTE N\u00b0 313","funcionamiento_hora_apertura":"08:00:00","funcionamiento_hora_cierre":"23:00:00","local_telefono":"+56026313259","local_lat":"-33.014488","local_lng":"-71.554607","funcionamiento_dia":"martes","fk_region":"6","fk_comuna":"80","fk_localidad":"28"},{"fecha":"30-08-16","local_id":"87","local_nombre":"AHUMADA","comuna_nombre":"VI\u00d1A DEL MAR","localidad_nombre":"PLAN DE VI\u00d1A","local_direccion":"QUILLOTA N\u00b0 441","funcionamiento_hora_apertura":"08:30:00","funcionamiento_hora_cierre":"22:30:00","local_telefono":"+56026313281","local_lat":"-33.017942","local_lng":"-71.54607161","funcionamiento_dia":"martes","fk_region":"6","fk_comuna":"80","fk_localidad":"28"},{"fecha":"30-08-16","local_id":"88","local_nombre":"AHUMADA","comuna_nombre":"VI\u00d1A DEL MAR","localidad_nombre":"PLAN DE VI\u00d1A","local_direccion":"15 NORTE N\u00b0 961 L- 115-118","funcionamiento_hora_apertura":"08:30:00","funcionamiento_hora_cierre":"22:00:00","local_telefono":"+56026313371","local_lat":"-33.008752","local_lng":"-71.544379","funcionamiento_dia":"martes","fk_region":"6","fk_comuna":"80","fk_localidad":"28"},{"fecha":"30-08-16","local_id":"89","local_nombre":"AHUMADA","comuna_nombre":"VI\u00d1A DEL MAR","localidad_nombre":"PLAN DE VI\u00d1A","local_direccion":"15 NORTE N\u00b0 961 L - 248","funcionamiento_hora_apertura":"09:00:00","funcionamiento_hora_cierre":"21:00:00","local_telefono":"+56026313403","local_lat":"-33.008752","local_lng":"-71.544379","funcionamiento_dia":"martes","fk_region":"6","fk_comuna":"80","fk_localidad":"28"},{"fecha":"30-08-16","local_id":"90","local_nombre":"AHUMADA","comuna_nombre":"VI\u00d1A DEL MAR","localidad_nombre":"MIRAFLORES ALTO","local_direccion":"AVDA. EDO. FREI N\u00b0 4025, MIRAFLORES","funcionamiento_hora_apertura":"09:00:00","funcionamiento_hora_cierre":"22:00:00","local_telefono":"+56026313211","local_lat":"-33.023500","local_lng":"-71.509430","funcionamiento_dia":"martes","fk_region":"6","fk_comuna":"80","fk_localidad":"22"},{"fecha":"30-08-16","local_id":"91","local_nombre":"AHUMADA","comuna_nombre":"VI\u00d1A DEL MAR","localidad_nombre":"RE\u00d1ACA","local_direccion":"AV. EDMUNDO ELUCHANS N\u00b0 1850 L-1","funcionamiento_hora_apertura":"08:30:00","funcionamiento_hora_cierre":"22:30:00","local_telefono":"+56026313809","local_lat":"-32.95765174","local_lng":"-71.54286905","funcionamiento_dia":"martes","fk_region":"6","fk_comuna":"80","fk_localidad":"36"},{"fecha":"30-08-16","local_id":"92","local_nombre":"AHUMADA","comuna_nombre":"VI\u00d1A DEL MAR","localidad_nombre":"PLAN DE VI\u00d1A","local_direccion":"AV. LIBERTAD N\u00b0 1191","funcionamiento_hora_apertura":"09:00:00","funcionamiento_hora_cierre":"23:00:00","local_telefono":"+56026313062","local_lat":"-33.0095822","local_lng":"-71.54864676","funcionamiento_dia":"martes","fk_region":"6","fk_comuna":"80","fk_localidad":"28"},{"fecha":"30-08-16","local_id":"93","local_nombre":"CRUZ VERDE","comuna_nombre":"VI\u00d1A DEL MAR","localidad_nombre":"PLAN DE VI\u00d1A","local_direccion":"AV. VALPARAISO N\u00b0 640","funcionamiento_hora_apertura":"08:30:00","funcionamiento_hora_cierre":"21:30:00","local_telefono":"+56322714701","local_lat":"-33.024911","local_lng":"-71.553248","funcionamiento_dia":"martes","fk_region":"6","fk_comuna":"80","fk_localidad":"28"},{"fecha":"30-08-16","local_id":"94","local_nombre":"CRUZ VERDE","comuna_nombre":"VI\u00d1A DEL MAR","localidad_nombre":"VI\u00d1A DEL MAR URGENCIA","local_direccion":"AV. VALPARAISO N\u00b0 404","funcionamiento_hora_apertura":"00:00:00","funcionamiento_hora_cierre":"00:00:00","local_telefono":"+56322714044","local_lat":"-33.024397","local_lng":"-71.557107","funcionamiento_dia":"martes","fk_region":"6","fk_comuna":"80","fk_localidad":"41"},{"fecha":"30-08-16","local_id":"95","local_nombre":"CRUZ VERDE","comuna_nombre":"VI\u00d1A DEL MAR","localidad_nombre":"PLAN DE VI\u00d1A","local_direccion":"AV.LIBERTAD N\u00b0 1348 L-22","funcionamiento_hora_apertura":"10:30:00","funcionamiento_hora_cierre":"21:30:00","local_telefono":"+56322382207","local_lat":"-33.008449","local_lng":"-71.548500","funcionamiento_dia":"martes","fk_region":"6","fk_comuna":"80","fk_localidad":"28"},{"fecha":"30-08-16","local_id":"96","local_nombre":"CRUZ VERDE","comuna_nombre":"VI\u00d1A DEL MAR","localidad_nombre":"PLAN DE VI\u00d1A","local_direccion":"AV. VALPARAISO N\u00b0 298","funcionamiento_hora_apertura":"09:00:00","funcionamiento_hora_cierre":"21:30:00","local_telefono":"+56322710470","local_lat":"-33.024105","local_lng":"-71.558556","funcionamiento_dia":"martes","fk_region":"6","fk_comuna":"80","fk_localidad":"28"},{"fecha":"30-08-16","local_id":"97","local_nombre":"CRUZ VERDE","comuna_nombre":"VI\u00d1A DEL MAR","localidad_nombre":"PLAN DE VI\u00d1A","local_direccion":"AV.LIBERTAD N\u00b0 825","funcionamiento_hora_apertura":"08:00:00","funcionamiento_hora_cierre":"00:00:00","local_telefono":"+56322976948","local_lat":"-33.01327113","local_lng":"-71.5493982","funcionamiento_dia":"martes","fk_region":"6","fk_comuna":"80","fk_localidad":"28"},{"fecha":"30-08-16","local_id":"98","local_nombre":"CRUZ VERDE","comuna_nombre":"VI\u00d1A DEL MAR","localidad_nombre":"PLAN DE VI\u00d1A","local_direccion":"QUILLOTA N\u00b0 493","funcionamiento_hora_apertura":"09:00:00","funcionamiento_hora_cierre":"21:30:00","local_telefono":"+56322680656","local_lat":"-33.01739361","local_lng":"-71.54591301","funcionamiento_dia":"martes","fk_region":"6","fk_comuna":"80","fk_localidad":"28"},{"fecha":"30-08-16","local_id":"99","local_nombre":"CRUZ VERDE","comuna_nombre":"VI\u00d1A DEL MAR","localidad_nombre":"PLAN DE VI\u00d1A","local_direccion":"AV.VALPARAISO N\u00b0 598","funcionamiento_hora_apertura":"08:30:00","funcionamiento_hora_cierre":"22:00:00","local_telefono":"+56322698083","local_lat":"-33.024742","local_lng":"-71.553614","funcionamiento_dia":"martes","fk_region":"6","fk_comuna":"80","fk_localidad":"28"},{"fecha":"30-08-16","local_id":"100","local_nombre":"CRUZ VERDE","comuna_nombre":"VI\u00d1A DEL MAR","localidad_nombre":"RECREO","local_direccion":"J.M.CARRERA N\u00b0 201","funcionamiento_hora_apertura":"09:00:00","funcionamiento_hora_cierre":"21:00:00","local_telefono":"+56322620782","local_lat":"-33.02683548","local_lng":"-71.57267024","funcionamiento_dia":"martes","fk_region":"6","fk_comuna":"80","fk_localidad":"35"},{"fecha":"30-08-16","local_id":"101","local_nombre":"CRUZ VERDE","comuna_nombre":"VI\u00d1A DEL MAR","localidad_nombre":"PLAN DE VI\u00d1A","local_direccion":"AV.LIBERTAD N\u00b0 1299","funcionamiento_hora_apertura":"09:00:00","funcionamiento_hora_cierre":"21:30:00","local_telefono":"+56322883169","local_lat":"-33.008530","local_lng":"-71.548857","funcionamiento_dia":"martes","fk_region":"6","fk_comuna":"80","fk_localidad":"28"},{"fecha":"30-08-16","local_id":"102","local_nombre":"CRUZ VERDE","comuna_nombre":"VI\u00d1A DEL MAR","localidad_nombre":"RE\u00d1ACA","local_direccion":"ANGAMOS N\u00b0 242 L- 1","funcionamiento_hora_apertura":"09:00:00","funcionamiento_hora_cierre":"21:30:00","local_telefono":"+56322836951","local_lat":"-32.971750","local_lng":"-71.542111","funcionamiento_dia":"martes","fk_region":"6","fk_comuna":"80","fk_localidad":"36"},{"fecha":"30-08-16","local_id":"103","local_nombre":"CRUZ VERDE","comuna_nombre":"VI\u00d1A DEL MAR","localidad_nombre":"PLAN DE VI\u00d1A","local_direccion":"ALVARES N\u00b0 314","funcionamiento_hora_apertura":"09:00:00","funcionamiento_hora_cierre":"21:30:00","local_telefono":"+56322623883","local_lat":"-33.025798","local_lng":"-71.558572","funcionamiento_dia":"martes","fk_region":"6","fk_comuna":"80","fk_localidad":"28"},{"fecha":"30-08-16","local_id":"104","local_nombre":"CRUZ VERDE","comuna_nombre":"VI\u00d1A DEL MAR","localidad_nombre":"PLAN DE VI\u00d1A","local_direccion":"AVDA. 1 NORTE N\u00ba 2901 L- 4054","funcionamiento_hora_apertura":"08:30:00","funcionamiento_hora_cierre":"22:30:00","local_telefono":"+56322674406","local_lat":"-33.03551229","local_lng":"-71.52318783","funcionamiento_dia":"martes","fk_region":"6","fk_comuna":"80","fk_localidad":"28"},{"fecha":"30-08-16","local_id":"106","local_nombre":"CRUZ VERDE","comuna_nombre":"VI\u00d1A DEL MAR","localidad_nombre":"PLAN DE VI\u00d1A","local_direccion":"4 PONIENTE N\u00b0 332","funcionamiento_hora_apertura":"08:30:00","funcionamiento_hora_cierre":"20:30:00","local_telefono":"+56322994810","local_lat":"-33.018365","local_lng":"-71.555661","funcionamiento_dia":"martes","fk_region":"6","fk_comuna":"80","fk_localidad":"28"},{"fecha":"30-08-16","local_id":"107","local_nombre":"DR. SIMI","comuna_nombre":"VI\u00d1A DEL MAR","localidad_nombre":"PLAN DE VI\u00d1A","local_direccion":"AV. VALPARAISO 940","funcionamiento_hora_apertura":"09:00:00","funcionamiento_hora_cierre":"21:00:00","local_telefono":"+56322157233","local_lat":"-33.025641","local_lng":"-71.548514","funcionamiento_dia":"martes","fk_region":"6","fk_comuna":"80","fk_localidad":"28"},{"fecha":"30-08-16","local_id":"108","local_nombre":"DR. SIMI","comuna_nombre":"VI\u00d1A DEL MAR","localidad_nombre":"PLAN DE VI\u00d1A","local_direccion":"AVDA. VALPARAISO N\u00b0 426-432","funcionamiento_hora_apertura":"09:00:00","funcionamiento_hora_cierre":"21:00:00","local_telefono":"+56322157237","local_lat":"-33.024457","local_lng":"-71.556470","funcionamiento_dia":"martes","fk_region":"6","fk_comuna":"80","fk_localidad":"28"},{"fecha":"30-08-16","local_id":"109","local_nombre":"DR. SIMI","comuna_nombre":"VI\u00d1A DEL MAR","localidad_nombre":"GOMEZ CARRE\u00d1O - RE\u00d1ACA ALTO","local_direccion":"ESTERO MAINTENLAHUE N\u00b0 925-2 RE\u00d1ACA ALTO","funcionamiento_hora_apertura":"09:00:00","funcionamiento_hora_cierre":"22:00:00","local_telefono":"+56322157239","local_lat":"-32.995972","local_lng":"-71.500611","funcionamiento_dia":"martes","fk_region":"6","fk_comuna":"80","fk_localidad":"10"},{"fecha":"30-08-16","local_id":"110","local_nombre":"DR. SIMI","comuna_nombre":"VI\u00d1A DEL MAR","localidad_nombre":"PLAN DE VI\u00d1A","local_direccion":"AV 15 NORTE 960","funcionamiento_hora_apertura":"09:00:00","funcionamiento_hora_cierre":"21:00:00","local_telefono":"+56323288087","local_lat":"-33.008849","local_lng":"-71.545203","funcionamiento_dia":"martes","fk_region":"6","fk_comuna":"80","fk_localidad":"28"},{"fecha":"30-08-16","local_id":"111","local_nombre":"FARMAMED ","comuna_nombre":"VI\u00d1A DEL MAR","localidad_nombre":"PLAN DE VI\u00d1A","local_direccion":"SAN ANTONIO 1225","funcionamiento_hora_apertura":"09:45:00","funcionamiento_hora_cierre":"19:45:00","local_telefono":"+56322975833","local_lat":"-33.010820","local_lng":"-71.542797","funcionamiento_dia":"martes","fk_region":"6","fk_comuna":"80","fk_localidad":"28"},{"fecha":"30-08-16","local_id":"112","local_nombre":"GALENICA","comuna_nombre":"VI\u00d1A DEL MAR","localidad_nombre":"PLAN DE VI\u00d1A","local_direccion":"ARLEGUI N\u00b0 580 L - 7 OF. 201","funcionamiento_hora_apertura":"09:00:00","funcionamiento_hora_cierre":"21:00:00","local_telefono":"+56322766221","local_lat":"-33.023664","local_lng":"-71.554140","funcionamiento_dia":"martes","fk_region":"6","fk_comuna":"80","fk_localidad":"28"},{"fecha":"30-08-16","local_id":"113","local_nombre":"HAHNEMANN","comuna_nombre":"VI\u00d1A DEL MAR","localidad_nombre":"PLAN DE VI\u00d1A","local_direccion":"ARLEGUI N\u00b0 443, L - 2","funcionamiento_hora_apertura":"09:30:00","funcionamiento_hora_cierre":"20:00:00","local_telefono":"+56322693919","local_lat":"-33.023204","local_lng":"-71.556131","funcionamiento_dia":"martes","fk_region":"6","fk_comuna":"80","fk_localidad":"28"},{"fecha":"30-08-16","local_id":"114","local_nombre":"JACOUB","comuna_nombre":"VI\u00d1A DEL MAR","localidad_nombre":"PLAN DE VI\u00d1A","local_direccion":"QUILLOTA N\u00b0 423","funcionamiento_hora_apertura":"09:30:00","funcionamiento_hora_cierre":"19:30:00","local_telefono":"+56322688928","local_lat":"-33.018670","local_lng":"-71.546712","funcionamiento_dia":"martes","fk_region":"6","fk_comuna":"80","fk_localidad":"28"},{"fecha":"30-08-16","local_id":"115","local_nombre":"KNOP","comuna_nombre":"VI\u00d1A DEL MAR","localidad_nombre":"PLAN DE VI\u00d1A","local_direccion":"AVDA. VALPARAISO N\u00b0 329","funcionamiento_hora_apertura":"09:00:00","funcionamiento_hora_cierre":"21:00:00","local_telefono":"+56322710645","local_lat":"-33.024011","local_lng":"-71.557995","funcionamiento_dia":"martes","fk_region":"6","fk_comuna":"80","fk_localidad":"28"},{"fecha":"30-08-16","local_id":"117","local_nombre":"NOVASALUD","comuna_nombre":"VI\u00d1A DEL MAR","localidad_nombre":"PLAN DE VI\u00d1A","local_direccion":"AV.LIBERTAD N\u00b0 80","funcionamiento_hora_apertura":"09:30:00","funcionamiento_hora_cierre":"19:30:00","local_telefono":"+56322545640","local_lat":"-33.021699","local_lng":"-71.551145","funcionamiento_dia":"martes","fk_region":"6","fk_comuna":"80","fk_localidad":"28"},{"fecha":"30-08-16","local_id":"118","local_nombre":"PONTECASINO","comuna_nombre":"VI\u00d1A DEL MAR","localidad_nombre":"PLAN DE VI\u00d1A","local_direccion":"AV.MARINA N\u00b0 102","funcionamiento_hora_apertura":"10:00:00","funcionamiento_hora_cierre":"22:00:00","local_telefono":"+56322976830","local_lat":"-33.021537","local_lng":"-71.560859","funcionamiento_dia":"martes","fk_region":"6","fk_comuna":"80","fk_localidad":"28"},{"fecha":"30-08-16","local_id":"119","local_nombre":"SALCOBRAND","comuna_nombre":"VI\u00d1A DEL MAR","localidad_nombre":"PLAN DE VI\u00d1A","local_direccion":"5 ORIENTE N\u00b0 58","funcionamiento_hora_apertura":"09:00:00","funcionamiento_hora_cierre":"22:00:00","local_telefono":"+56322882052","local_lat":"-33.023005","local_lng":"-71.545019","funcionamiento_dia":"martes","fk_region":"6","fk_comuna":"80","fk_localidad":"28"},{"fecha":"30-08-16","local_id":"120","local_nombre":"SALCOBRAND","comuna_nombre":"VI\u00d1A DEL MAR","localidad_nombre":"PLAN DE VI\u00d1A","local_direccion":"LIBERTAD N\u00b0 1348 L-39 MALL MARINA","funcionamiento_hora_apertura":"10:30:00","funcionamiento_hora_cierre":"21:00:00","local_telefono":"+56322688074","local_lat":"-33.008844","local_lng":"-71.548605","funcionamiento_dia":"martes","fk_region":"6","fk_comuna":"80","fk_localidad":"28"},{"fecha":"30-08-16","local_id":"121","local_nombre":"SALCOBRAND","comuna_nombre":"VI\u00d1A DEL MAR","localidad_nombre":"PLAN DE VI\u00d1A","local_direccion":"AVDA. VALPARAISO N\u00b0 490","funcionamiento_hora_apertura":"09:00:00","funcionamiento_hora_cierre":"21:30:00","local_telefono":"+56322465189","local_lat":"-33.024539","local_lng":"-71.555810","funcionamiento_dia":"martes","fk_region":"6","fk_comuna":"80","fk_localidad":"28"},{"fecha":"30-08-16","local_id":"122","local_nombre":"SALCOBRAND","comuna_nombre":"VI\u00d1A DEL MAR","localidad_nombre":"PLAN DE VI\u00d1A","local_direccion":"AVDA. VALPARAISO N\u00b0 344 Y 348","funcionamiento_hora_apertura":"09:00:00","funcionamiento_hora_cierre":"22:00:00","local_telefono":"+56322465191","local_lat":"-33.024251","local_lng":"-71.557771","funcionamiento_dia":"martes","fk_region":"6","fk_comuna":"80","fk_localidad":"28"},{"fecha":"30-08-16","local_id":"124","local_nombre":"SALCOBRAND","comuna_nombre":"VI\u00d1A DEL MAR","localidad_nombre":"PLAN DE VI\u00d1A","local_direccion":"AVDA. LIBERTAD N\u00b0 1217-1223","funcionamiento_hora_apertura":"09:00:00","funcionamiento_hora_cierre":"23:00:00","local_telefono":"+56322696214","local_lat":"-33.008606","local_lng":"-71.548832","funcionamiento_dia":"martes","fk_region":"6","fk_comuna":"80","fk_localidad":"28"},{"fecha":"30-08-16","local_id":"125","local_nombre":"SALCOBRAND","comuna_nombre":"VI\u00d1A DEL MAR","localidad_nombre":"PLAN DE VI\u00d1A","local_direccion":"AV. VALPARAISO N\u00b0 616","funcionamiento_hora_apertura":"09:00:00","funcionamiento_hora_cierre":"21:30:00","local_telefono":"+56322465193","local_lat":"-33.024856","local_lng":"-71.553657","funcionamiento_dia":"martes","fk_region":"6","fk_comuna":"80","fk_localidad":"28"},{"fecha":"30-08-16","local_id":"126","local_nombre":"SALCOBRAND","comuna_nombre":"VI\u00d1A DEL MAR","localidad_nombre":"RE\u00d1ACA","local_direccion":"AVDA.BORGO\u00d1O N\u00b0 14410","funcionamiento_hora_apertura":"09:00:00","funcionamiento_hora_cierre":"21:30:00","local_telefono":"+56322833912","local_lat":"-32.972672","local_lng":"-71.543969","funcionamiento_dia":"martes","fk_region":"6","fk_comuna":"80","fk_localidad":"36"},{"fecha":"30-08-16","local_id":"127","local_nombre":"SALCOBRAND","comuna_nombre":"VI\u00d1A DEL MAR","localidad_nombre":"PLAN DE VI\u00d1A","local_direccion":"AVDA. VALPARAISO N\u00b0 532","funcionamiento_hora_apertura":"09:30:00","funcionamiento_hora_cierre":"21:30:00","local_telefono":"+56322695892","local_lat":"-33.024645","local_lng":"-71.555017","funcionamiento_dia":"martes","fk_region":"6","fk_comuna":"80","fk_localidad":"28"},{"fecha":"30-08-16","local_id":"128","local_nombre":"SALCOBRAND","comuna_nombre":"VI\u00d1A DEL MAR","localidad_nombre":"PLAN DE VI\u00d1A","local_direccion":"AV. LIBERTAD N\u00b0 800 - 828","funcionamiento_hora_apertura":"09:00:00","funcionamiento_hora_cierre":"23:00:00","local_telefono":"+56322691341","local_lat":"-33.014278","local_lng":"-71.549727","funcionamiento_dia":"martes","fk_region":"6","fk_comuna":"80","fk_localidad":"28"},{"fecha":"30-08-16","local_id":"129","local_nombre":"SALCOBRAND","comuna_nombre":"VI\u00d1A DEL MAR","localidad_nombre":"PLAN DE VI\u00d1A","local_direccion":"JORGE MONTT N\u00b0 2300 LAS SALINAS","funcionamiento_hora_apertura":"09:00:00","funcionamiento_hora_cierre":"23:00:00","local_telefono":"+56322691142","local_lat":"-32.999581","local_lng":"-71.548045","funcionamiento_dia":"martes","fk_region":"6","fk_comuna":"80","fk_localidad":"28"},{"fecha":"30-08-16","local_id":"130","local_nombre":"SALCOBRAND","comuna_nombre":"VI\u00d1A DEL MAR","localidad_nombre":"PLAN DE VI\u00d1A","local_direccion":"3 NORTE N\u00b0 464 ( INT. MEGASALUD )","funcionamiento_hora_apertura":"08:30:00","funcionamiento_hora_cierre":"19:30:00","local_telefono":"+56322683206","local_lat":"-33.020136","local_lng":"-71.554069","funcionamiento_dia":"martes","fk_region":"6","fk_comuna":"80","fk_localidad":"28"},{"fecha":"30-08-16","local_id":"132","local_nombre":"SEREY ","comuna_nombre":"VI\u00d1A DEL MAR","localidad_nombre":"PLAN DE VI\u00d1A","local_direccion":"VALPARAISO N\u00b0 694, LOCAL 6","funcionamiento_hora_apertura":"10:00:00","funcionamiento_hora_cierre":"20:00:00","local_telefono":"+56322466075","local_lat":"-33.024964","local_lng":"-71.552866","funcionamiento_dia":"martes","fk_region":"6","fk_comuna":"80","fk_localidad":"28"},{"fecha":"30-08-16","local_id":"133","local_nombre":"VI\u00d1AMARINA","comuna_nombre":"VI\u00d1A DEL MAR","localidad_nombre":"PLAN DE VI\u00d1A","local_direccion":"QUILLOTA N\u00b0 0183","funcionamiento_hora_apertura":"10:00:00","funcionamiento_hora_cierre":"19:00:00","local_telefono":"+56322993285","local_lat":"-33.018667","local_lng":"-71.546528","funcionamiento_dia":"martes","fk_region":"6","fk_comuna":"80","fk_localidad":"28"},{"fecha":"30-08-16","local_id":"134","local_nombre":"VILLANELO \u00a0","comuna_nombre":"VI\u00d1A DEL MAR","localidad_nombre":"PLAN DE VI\u00d1A","local_direccion":"VILLANELO N\u00b0 255","funcionamiento_hora_apertura":"10:00:00","funcionamiento_hora_cierre":"20:00:00","local_telefono":"+56322711040","local_lat":"-33.025082","local_lng":"-71.557110","funcionamiento_dia":"martes","fk_region":"6","fk_comuna":"80","fk_localidad":"28"},{"fecha":"30-08-16","local_id":"135","local_nombre":"VI\u00d1AMARINA","comuna_nombre":"VI\u00d1A DEL MAR","localidad_nombre":"PLAN DE VI\u00d1A","local_direccion":"ARLEGUI N\u00b0 616","funcionamiento_hora_apertura":"10:00:00","funcionamiento_hora_cierre":"20:00:00","local_telefono":"+56322714657","local_lat":"-33.023743","local_lng":"-71.553562","funcionamiento_dia":"martes","fk_region":"6","fk_comuna":"80","fk_localidad":"28"},{"fecha":"30-08-16","local_id":"136","local_nombre":"LIGA CONTRA LA EPILEPSIA","comuna_nombre":"VI\u00d1A DEL MAR","localidad_nombre":"PLAN DE VI\u00d1A","local_direccion":"ARLEGUI N\u00b0 646 OF. 201","funcionamiento_hora_apertura":"09:00:00","funcionamiento_hora_cierre":"13:00:00","local_telefono":"+56322881554","local_lat":"-33.023805","local_lng":"-71.553175","funcionamiento_dia":"martes","fk_region":"6","fk_comuna":"80","fk_localidad":"28"},{"fecha":"30-08-16","local_id":"137","local_nombre":"DR. SIMI","comuna_nombre":"VI\u00d1A DEL MAR","localidad_nombre":"PLAN DE VI\u00d1A","local_direccion":"AV. VALPARA\u00cdSO 683","funcionamiento_hora_apertura":"07:00:00","funcionamiento_hora_cierre":"22:00:00","local_telefono":"+56322979177","local_lat":"-33.024797","local_lng":"-71.552821","funcionamiento_dia":"martes","fk_region":"6","fk_comuna":"80","fk_localidad":"28"},{"fecha":"30-08-16","local_id":"138","local_nombre":"FARMAMED ","comuna_nombre":"VI\u00d1A DEL MAR","localidad_nombre":"PLAN DE VI\u00d1A","local_direccion":"ARLEGUI N\u00b0914","funcionamiento_hora_apertura":"10:00:00","funcionamiento_hora_cierre":"20:30:00","local_telefono":"+56322972403","local_lat":"-33.024508","local_lng":"-71.548769","funcionamiento_dia":"martes","fk_region":"6","fk_comuna":"80","fk_localidad":"28"},{"fecha":"30-08-16","local_id":"139","local_nombre":"ECOFARMACIAS","comuna_nombre":"VI\u00d1A DEL MAR","localidad_nombre":"PLAN DE VI\u00d1A","local_direccion":"AV. VALPARAISO 421","funcionamiento_hora_apertura":"09:00:00","funcionamiento_hora_cierre":"21:00:00","local_telefono":"+56322543152","local_lat":"-33.024227","local_lng":"-71.556591","funcionamiento_dia":"martes","fk_region":"6","fk_comuna":"80","fk_localidad":"28"},{"fecha":"30-08-16","local_id":"140","local_nombre":"AHUMADA","comuna_nombre":"VI\u00d1A DEL MAR","localidad_nombre":"PLAN DE VI\u00d1A","local_direccion":"AV. VALPARAISO N\u00b01070 L 2116","funcionamiento_hora_apertura":"08:30:00","funcionamiento_hora_cierre":"22:00:00","local_telefono":"+56026313696","local_lat":"-33.026222","local_lng":"-71.548222","funcionamiento_dia":"martes","fk_region":"6","fk_comuna":"80","fk_localidad":"28"},{"fecha":"30-08-16","local_id":"141","local_nombre":"CRUZ VERDE","comuna_nombre":"VI\u00d1A DEL MAR","localidad_nombre":"PLAN DE VI\u00d1A","local_direccion":"AV. VALPARAISO 1070 L 3008","funcionamiento_hora_apertura":"10:00:00","funcionamiento_hora_cierre":"21:00:00","local_telefono":"+56322713659","local_lat":"-33.025733","local_lng":"-71.547870","funcionamiento_dia":"martes","fk_region":"6","fk_comuna":"80","fk_localidad":"28"},{"fecha":"30-08-16","local_id":"142","local_nombre":"ECOFARMACIAS","comuna_nombre":"VI\u00d1A DEL MAR","localidad_nombre":"PLAN DE VI\u00d1A","local_direccion":"AV. VALPARAISO 206","funcionamiento_hora_apertura":"09:00:00","funcionamiento_hora_cierre":"21:00:00","local_telefono":"+56322158472","local_lat":"-33.023977","local_lng":"-71.559877","funcionamiento_dia":"martes","fk_region":"6","fk_comuna":"80","fk_localidad":"28"},{"fecha":"30-08-16","local_id":"143","local_nombre":"SALCOBRAND","comuna_nombre":"VI\u00d1A DEL MAR","localidad_nombre":"PLAN DE VI\u00d1A","local_direccion":"AV. LIBERTAD 269 L 101","funcionamiento_hora_apertura":"09:00:00","funcionamiento_hora_cierre":"21:00:00","local_telefono":"+56322979237","local_lat":"-33.019895","local_lng":"-71.551305","funcionamiento_dia":"martes","fk_region":"6","fk_comuna":"80","fk_localidad":"28"},{"fecha":"30-08-16","local_id":"146","local_nombre":"AHUMADA","comuna_nombre":"VALPARAISO","localidad_nombre":"PLAN VALPARAISO","local_direccion":"CONDELL N\u00ba 1343","funcionamiento_hora_apertura":"09:00:00","funcionamiento_hora_cierre":"21:00:00","local_telefono":"+560228176158","local_lat":"-33.045016","local_lng":"-71.623246","funcionamiento_dia":"martes","fk_region":"6","fk_comuna":"78","fk_localidad":"2"},{"fecha":"30-08-16","local_id":"148","local_nombre":"AHUMADA","comuna_nombre":"VALPARAISO","localidad_nombre":"PLAN VALPARAISO","local_direccion":"AV. ESPA\u00d1A N\u00b0 951","funcionamiento_hora_apertura":"08:00:00","funcionamiento_hora_cierre":"23:00:00","local_telefono":"+56026313269","local_lat":"-33.038003","local_lng":"-71.600624","funcionamiento_dia":"martes","fk_region":"6","fk_comuna":"78","fk_localidad":"2"},{"fecha":"30-08-16","local_id":"149","local_nombre":"AHUMADA","comuna_nombre":"VALPARAISO","localidad_nombre":"PLAN VALPARAISO","local_direccion":"AV. BRASIL N\u00b0 1303, LOCAL 1","funcionamiento_hora_apertura":"09:00:00","funcionamiento_hora_cierre":"21:00:00","local_telefono":"+560226313367","local_lat":"-33.0437999","local_lng":"-71.62271909999998","funcionamiento_dia":"martes","fk_region":"6","fk_comuna":"78","fk_localidad":"2"},{"fecha":"30-08-16","local_id":"150","local_nombre":"AHUMADA","comuna_nombre":"VALPARAISO","localidad_nombre":"PLAN VALPARAISO","local_direccion":"AV. URUGUAY N\u00ba368","funcionamiento_hora_apertura":"09:00:00","funcionamiento_hora_cierre":"20:00:00","local_telefono":"+56026313262","local_lat":"-33.047241","local_lng":"-71.608228","funcionamiento_dia":"martes","fk_region":"6","fk_comuna":"78","fk_localidad":"2"},{"fecha":"30-08-16","local_id":"151","local_nombre":"ALMENDRAL","comuna_nombre":"VALPARAISO","localidad_nombre":"PLAN VALPARAISO","local_direccion":"CHACABUCO N\u00ba 2797","funcionamiento_hora_apertura":"09:00:00","funcionamiento_hora_cierre":"20:00:00","local_telefono":"+56322212199","local_lat":"-33.046242","local_lng":"-71.607040","funcionamiento_dia":"martes","fk_region":"6","fk_comuna":"78","fk_localidad":"2"},{"fecha":"30-08-16","local_id":"152","local_nombre":"CRUZ VERDE","comuna_nombre":"VALPARAISO","localidad_nombre":"PLAN VALPARAISO","local_direccion":"CONDELL N\u00aa1302","funcionamiento_hora_apertura":"08:30:00","funcionamiento_hora_cierre":"21:30:00","local_telefono":"+56322596084","local_lat":"-33.044986","local_lng":"-71.623553","funcionamiento_dia":"martes","fk_region":"6","fk_comuna":"78","fk_localidad":"2"},{"fecha":"30-08-16","local_id":"153","local_nombre":"CRUZ VERDE","comuna_nombre":"VALPARAISO","localidad_nombre":"PLAN VALPARAISO","local_direccion":"AV. PEDRO MONTT N\u00ba 2248","funcionamiento_hora_apertura":"08:30:00","funcionamiento_hora_cierre":"21:30:00","local_telefono":"+56322755435","local_lat":"-33.047446","local_lng":"-71.612773","funcionamiento_dia":"martes","fk_region":"6","fk_comuna":"78","fk_localidad":"2"},{"fecha":"30-08-16","local_id":"154","local_nombre":"CRUZ VERDE","comuna_nombre":"VALPARAISO","localidad_nombre":"PLAN VALPARAISO","local_direccion":"AV. PEDRO MONTT N\u00b0 2705","funcionamiento_hora_apertura":"10:00:00","funcionamiento_hora_cierre":"21:00:00","local_telefono":"+56322214500","local_lat":"-33.047317","local_lng":"-71.607928","funcionamiento_dia":"martes","fk_region":"6","fk_comuna":"78","fk_localidad":"2"},{"fecha":"30-08-16","local_id":"156","local_nombre":"CRUZ VERDE","comuna_nombre":"VALPARAISO","localidad_nombre":"PLAN VALPARAISO","local_direccion":"AV. ARGENTINA N\u00b0 51 LOCAL N\u00b0 2003","funcionamiento_hora_apertura":"08:30:00","funcionamiento_hora_cierre":"22:00:00","local_telefono":"+56322593890","local_lat":"-33.044331","local_lng":"-71.604685","funcionamiento_dia":"martes","fk_region":"6","fk_comuna":"78","fk_localidad":"2"},{"fecha":"30-08-16","local_id":"158","local_nombre":"CRUZ VERDE","comuna_nombre":"VALPARAISO","localidad_nombre":"PLACILLA","local_direccion":"OBISPO VALDEZ SUBERCASEAUX N\u00b0 1170 LOCAL 6 Y 7 PLACILLA","funcionamiento_hora_apertura":"08:30:00","funcionamiento_hora_cierre":"22:00:00","local_telefono":"+56392292916","local_lat":"-33.118706","local_lng":"-71.571378","funcionamiento_dia":"martes","fk_region":"6","fk_comuna":"78","fk_localidad":"27"},{"fecha":"30-08-16","local_id":"159","local_nombre":"CRUZ VERDE","comuna_nombre":"VALPARAISO","localidad_nombre":"PLACILLA","local_direccion":"AV. CARDENAL SAMORE N\u00ba2335 LOCAL 1862 PLACILLA","funcionamiento_hora_apertura":"08:30:00","funcionamiento_hora_cierre":"22:00:00","local_telefono":"+56322294849","local_lat":"-33.131056","local_lng":"-71.565056","funcionamiento_dia":"martes","fk_region":"6","fk_comuna":"78","fk_localidad":"27"},{"fecha":"30-08-16","local_id":"160","local_nombre":"CRUZ VERDE","comuna_nombre":"VALPARAISO","localidad_nombre":"PLAN VALPARAISO","local_direccion":"CONDELL N\u00ba 1202","funcionamiento_hora_apertura":"09:00:00","funcionamiento_hora_cierre":"22:00:00","local_telefono":"+56322236113","local_lat":"-33.043728","local_lng":"-71.624420","funcionamiento_dia":"martes","fk_region":"6","fk_comuna":"78","fk_localidad":"2"},{"fecha":"30-08-16","local_id":"161","local_nombre":"CRUZ VERDE","comuna_nombre":"VALPARAISO","localidad_nombre":"PLAN VALPARAISO","local_direccion":"AV. PEDRO MONTT N\u00ba 2498","funcionamiento_hora_apertura":"09:00:00","funcionamiento_hora_cierre":"21:00:00","local_telefono":"+56322210981","local_lat":"-33.0474369","local_lng":"-71.60974069999997","funcionamiento_dia":"martes","fk_region":"6","fk_comuna":"78","fk_localidad":"2"},{"fecha":"30-08-16","local_id":"162","local_nombre":"CRUZ VERDE","comuna_nombre":"VALPARAISO","localidad_nombre":"PLAN VALPARAISO","local_direccion":"INDEPENDENCIA N\u00ba 1702","funcionamiento_hora_apertura":"09:00:00","funcionamiento_hora_cierre":"21:00:00","local_telefono":"+56322212281","local_lat":"-33.046991","local_lng":"-71.619318","funcionamiento_dia":"martes","fk_region":"6","fk_comuna":"78","fk_localidad":"2"},{"fecha":"30-08-16","local_id":"163","local_nombre":"CRUZ VERDE","comuna_nombre":"VALPARAISO","localidad_nombre":"PLAN VALPARAISO","local_direccion":"SOTOMAYOR N\u00b0 160","funcionamiento_hora_apertura":"09:30:00","funcionamiento_hora_cierre":"21:30:00","local_telefono":"+56322237022","local_lat":"-33.0383601","local_lng":"-71.62885310000001","funcionamiento_dia":"martes","fk_region":"6","fk_comuna":"78","fk_localidad":"2"},{"fecha":"30-08-16","local_id":"164","local_nombre":"DR. SIMI","comuna_nombre":"VALPARAISO","localidad_nombre":"PLAN VALPARAISO","local_direccion":"CONDELL N\u00ba1509 LOCAL 2","funcionamiento_hora_apertura":"09:00:00","funcionamiento_hora_cierre":"21:00:00","local_telefono":"+56322157243","local_lat":"-33.046101","local_lng":"-71.621494","funcionamiento_dia":"martes","fk_region":"6","fk_comuna":"78","fk_localidad":"2"},{"fecha":"30-08-16","local_id":"165","local_nombre":"DR. SIMI","comuna_nombre":"VALPARAISO","localidad_nombre":"PLAN VALPARAISO","local_direccion":"BELLAVISTA N\u00ba 464","funcionamiento_hora_apertura":"09:00:00","funcionamiento_hora_cierre":"21:00:00","local_telefono":"+56322157241","local_lat":"-33.044638","local_lng":"-71.623472","funcionamiento_dia":"martes","fk_region":"6","fk_comuna":"78","fk_localidad":"2"},{"fecha":"30-08-16","local_id":"167","local_nombre":"GALENICA","comuna_nombre":"VALPARAISO","localidad_nombre":"PLAN VALPARAISO","local_direccion":"AV. PEDRO MONTT N\u00b0 2060","funcionamiento_hora_apertura":"09:00:00","funcionamiento_hora_cierre":"21:00:00","local_telefono":"+56323142876","local_lat":"-33.0471241","local_lng":"-71.6152155","funcionamiento_dia":"martes","fk_region":"6","fk_comuna":"78","fk_localidad":"2"},{"fecha":"30-08-16","local_id":"168","local_nombre":"IBERIA","comuna_nombre":"VALPARAISO","localidad_nombre":"PLAN VALPARAISO","local_direccion":"VICTORIA N\u00ba 3092","funcionamiento_hora_apertura":"09:00:00","funcionamiento_hora_cierre":"20:00:00","local_telefono":"+56322255096","local_lat":"-33.050917","local_lng":"-71.602810","funcionamiento_dia":"martes","fk_region":"6","fk_comuna":"78","fk_localidad":"2"},{"fecha":"30-08-16","local_id":"169","local_nombre":"MUNNICH","comuna_nombre":"VALPARAISO","localidad_nombre":"PLAN VALPARAISO","local_direccion":"AV. PEDRO MONTT N\u00aa 2614","funcionamiento_hora_apertura":"09:30:00","funcionamiento_hora_cierre":"20:00:00","local_telefono":"+56322230184","local_lat":"-33.047542","local_lng":"-71.608781","funcionamiento_dia":"martes","fk_region":"6","fk_comuna":"78","fk_localidad":"2"},{"fecha":"30-08-16","local_id":"170","local_nombre":"PLAYA ANCHA","comuna_nombre":"VALPARAISO","localidad_nombre":"PLAYA ANCHA","local_direccion":"AV. PLAYA ANCHA N\u00ba 172","funcionamiento_hora_apertura":"11:00:00","funcionamiento_hora_cierre":"19:00:00","local_telefono":"+56322281196","local_lat":"-33.030492","local_lng":"-71.635704","funcionamiento_dia":"martes","fk_region":"6","fk_comuna":"78","fk_localidad":"29"},{"fecha":"30-08-16","local_id":"171","local_nombre":"PORTE\u00d1A","comuna_nombre":"VALPARAISO","localidad_nombre":"PLAN VALPARAISO","local_direccion":"AV.ARGENTINA N\u00ba 301","funcionamiento_hora_apertura":"10:30:00","funcionamiento_hora_cierre":"21:30:00","local_telefono":"+56322469579","local_lat":"-33.045995","local_lng":"-71.604202","funcionamiento_dia":"martes","fk_region":"6","fk_comuna":"78","fk_localidad":"2"},{"fecha":"30-08-16","local_id":"172","local_nombre":"NACIONAL","comuna_nombre":"VALPARAISO","localidad_nombre":"PLAYA ANCHA","local_direccion":"AV. PLAYA ANCHA N\u00ba 257","funcionamiento_hora_apertura":"10:00:00","funcionamiento_hora_cierre":"18:00:00","local_telefono":"+56322282744","local_lat":"-33.029983","local_lng":"-71.636508","funcionamiento_dia":"martes","fk_region":"6","fk_comuna":"78","fk_localidad":"29"},{"fecha":"30-08-16","local_id":"173","local_nombre":"REDFARMA","comuna_nombre":"VALPARAISO","localidad_nombre":"PLAN VALPARAISO","local_direccion":"CONDELL 1205","funcionamiento_hora_apertura":"10:00:00","funcionamiento_hora_cierre":"20:30:00","local_telefono":"+56322213547","local_lat":"-33.0436644","local_lng":"-71.6243513","funcionamiento_dia":"martes","fk_region":"6","fk_comuna":"78","fk_localidad":"2"},{"fecha":"30-08-16","local_id":"174","local_nombre":"REDFARMA 40","comuna_nombre":"VALPARAISO","localidad_nombre":"PLAN VALPARAISO","local_direccion":"SERRANO N\u00ba 301","funcionamiento_hora_apertura":"09:30:00","funcionamiento_hora_cierre":"20:00:00","local_telefono":"+56322210871","local_lat":"-33.03686449999992","local_lng":"-71.63025984655758","funcionamiento_dia":"martes","fk_region":"6","fk_comuna":"78","fk_localidad":"2"},{"fecha":"30-08-16","local_id":"175","local_nombre":"SALCOBRAND","comuna_nombre":"VALPARAISO","localidad_nombre":"PLAN VALPARAISO","local_direccion":"AV. PEDRO MONTT N\u00ba 1804","funcionamiento_hora_apertura":"09:00:00","funcionamiento_hora_cierre":"22:00:00","local_telefono":"+5632224223300 anexo 5008","local_lat":"-33.046938","local_lng":"-71.618166","funcionamiento_dia":"martes","fk_region":"6","fk_comuna":"78","fk_localidad":"2"},{"fecha":"30-08-16","local_id":"176","local_nombre":"SALCOBRAND","comuna_nombre":"VALPARAISO","localidad_nombre":"PLAN VALPARAISO","local_direccion":"AV URUGUAY N\u00ba 375","funcionamiento_hora_apertura":"08:30:00","funcionamiento_hora_cierre":"21:00:00","local_telefono":"+5632224223300 anexo 5092","local_lat":"-33.047042","local_lng":"-71.607839","funcionamiento_dia":"martes","fk_region":"6","fk_comuna":"78","fk_localidad":"2"},{"fecha":"30-08-16","local_id":"177","local_nombre":"SALCOBRAND ","comuna_nombre":"VALPARAISO","localidad_nombre":"PLAN VALPARAISO","local_direccion":"CONDELL N\u00b0 1289","funcionamiento_hora_apertura":"09:00:00","funcionamiento_hora_cierre":"21:00:00","local_telefono":"+5632224223300 anexo 5294","local_lat":"-33.0448098","local_lng":"-71.6238049","funcionamiento_dia":"martes","fk_region":"6","fk_comuna":"78","fk_localidad":"2"},{"fecha":"30-08-16","local_id":"179","local_nombre":"SALCOBRAND","comuna_nombre":"VALPARAISO","localidad_nombre":"PLAN VALPARAISO","local_direccion":"AV. PEDRO MONTT N\u00ba 1898","funcionamiento_hora_apertura":"09:00:00","funcionamiento_hora_cierre":"24:00:00","local_telefono":"+5632224223300 anexo 5376","local_lat":"-33.046954619116036","local_lng":"-71.61660881321416","funcionamiento_dia":"martes","fk_region":"6","fk_comuna":"78","fk_localidad":"2"},{"fecha":"30-08-16","local_id":"180","local_nombre":"SALCOBRAND ","comuna_nombre":"VALPARAISO","localidad_nombre":"PLAN VALPARAISO","local_direccion":"AV. ARGENTINA N\u00b0 51 LOCAL N\u00b0 2027","funcionamiento_hora_apertura":"08:30:00","funcionamiento_hora_cierre":"22:30:00","local_telefono":"+5632224223300 anexo 5422","local_lat":"-33.044364","local_lng":"-71.604746","funcionamiento_dia":"martes","fk_region":"6","fk_comuna":"78","fk_localidad":"2"},{"fecha":"30-08-16","local_id":"181","local_nombre":"BOTICA SALCOBRAND","comuna_nombre":"VALPARAISO","localidad_nombre":"PLAN VALPARAISO","local_direccion":"PLAZA ANIBAL PINTO 1191-1199 LC 1 Y 2","funcionamiento_hora_apertura":"08:30:00","funcionamiento_hora_cierre":"21:00:00","local_telefono":"+5632224223300 anexo 5469","local_lat":"-33.043156","local_lng":"-71.624378","funcionamiento_dia":"martes","fk_region":"6","fk_comuna":"78","fk_localidad":"2"},{"fecha":"30-08-16","local_id":"182","local_nombre":"KNOP","comuna_nombre":"VALPARAISO","localidad_nombre":"PLAN VALPARAISO","local_direccion":"AV. BRASIL 1302","funcionamiento_hora_apertura":"09:00:00","funcionamiento_hora_cierre":"21:00:00","local_telefono":"+56322214391","local_lat":"-33.0442046","local_lng":"-71.6229896","funcionamiento_dia":"martes","fk_region":"6","fk_comuna":"78","fk_localidad":"2"},{"fecha":"30-08-16","local_id":"183","local_nombre":"KNOP","comuna_nombre":"VALPARAISO","localidad_nombre":"PLAN VALPARAISO","local_direccion":"AV. PEDRO MONTTN\u00ba 1842 LOCAL A - 102","funcionamiento_hora_apertura":"10:00:00","funcionamiento_hora_cierre":"20:00:00","local_telefono":"+56322236692","local_lat":"-33.047172","local_lng":"-71.617798","funcionamiento_dia":"martes","fk_region":"6","fk_comuna":"78","fk_localidad":"2"},{"fecha":"30-08-16","local_id":"184","local_nombre":"KNOP","comuna_nombre":"VALPARAISO","localidad_nombre":"PLAN VALPARAISO","local_direccion":"AV. ARGENTINA N\u00b0 241","funcionamiento_hora_apertura":"09:00:00","funcionamiento_hora_cierre":"21:00:00","local_telefono":"+56322259091","local_lat":"-33.044751605578476","local_lng":"-71.60488459468985","funcionamiento_dia":"martes","fk_region":"6","fk_comuna":"78","fk_localidad":"2"},{"fecha":"30-08-16","local_id":"185","local_nombre":"MAS SALUD","comuna_nombre":"VALPARAISO","localidad_nombre":"PLAN VALPARAISO","local_direccion":"CONDEL N\u00ba 1525","funcionamiento_hora_apertura":"11:00:00","funcionamiento_hora_cierre":"19:30:00","local_telefono":"+56322226556","local_lat":"-33.046207","local_lng":"-71.621276","funcionamiento_dia":"martes","fk_region":"6","fk_comuna":"78","fk_localidad":"2"},{"fecha":"30-08-16","local_id":"186","local_nombre":"CRUZ VERDE","comuna_nombre":"VALPARAISO","localidad_nombre":"VALPARAISO URGENCIA","local_direccion":"AV. PEDRO MONTT 1902","funcionamiento_hora_apertura":"00:00:00","funcionamiento_hora_cierre":"00:00:00","local_telefono":"+56322745048","local_lat":"-33.047087","local_lng":"-71.616909","funcionamiento_dia":"martes","fk_region":"6","fk_comuna":"78","fk_localidad":"1"},{"fecha":"30-08-16","local_id":"187","local_nombre":"CONAC","comuna_nombre":"VALPARAISO","localidad_nombre":"PLAN VALPARAISO","local_direccion":"BLAS CUEVAS N\u00b0 965","funcionamiento_hora_apertura":"09:30:00","funcionamiento_hora_cierre":"17:30:00","local_telefono":"+56322258626","local_lat":"-33.052367","local_lng":"-71.609713","funcionamiento_dia":"martes","fk_region":"6","fk_comuna":"78","fk_localidad":"2"},{"fecha":"30-08-16","local_id":"188","local_nombre":"DR. AHORRO","comuna_nombre":"VALPARAISO","localidad_nombre":"PLAN VALPARAISO","local_direccion":"CONDELL N\u00b0 1527","funcionamiento_hora_apertura":"09:00:00","funcionamiento_hora_cierre":"17:00:00","local_telefono":"+56322257792","local_lat":"-33.046315","local_lng":"-71.6212915","funcionamiento_dia":"martes","fk_region":"6","fk_comuna":"78","fk_localidad":"2"},{"fecha":"30-08-16","local_id":"189","local_nombre":"DR. AHORRO","comuna_nombre":"VALPARAISO","localidad_nombre":"PLAN VALPARAISO","local_direccion":"AV. PEDRO MONTT N\u00b0 2384","funcionamiento_hora_apertura":"09:00:00","funcionamiento_hora_cierre":"21:00:00","local_telefono":"+56322595964","local_lat":"-33.0474003","local_lng":"-71.6111711","funcionamiento_dia":"martes","fk_region":"6","fk_comuna":"78","fk_localidad":"2"},{"fecha":"30-08-16","local_id":"191","local_nombre":"CRUZ VERDE","comuna_nombre":"CASABLANCA","localidad_nombre":"CASABLANCA","local_direccion":"CHACABUCO N\u00ba 294","funcionamiento_hora_apertura":"08:30:00","funcionamiento_hora_cierre":"21:30:00","local_telefono":"+56322741821","local_lat":"-33.319875","local_lng":"-71.406696","funcionamiento_dia":"martes","fk_region":"6","fk_comuna":"344","fk_localidad":"49"},{"fecha":"30-08-16","local_id":"192","local_nombre":"REDFARMA","comuna_nombre":"CASABLANCA","localidad_nombre":"CASABLANCA","local_direccion":"CHACABUCO N\u00ba 208","funcionamiento_hora_apertura":"10:00:00","funcionamiento_hora_cierre":"21:00:00","local_telefono":"+56322743046","local_lat":"-33.319556","local_lng":"-71.406639","funcionamiento_dia":"martes","fk_region":"6","fk_comuna":"344","fk_localidad":"49"},{"fecha":"30-08-16","local_id":"193","local_nombre":"AHUMADA","comuna_nombre":"CASABLANCA","localidad_nombre":"CASABLANCA","local_direccion":"CONSTITUCION 110-122","funcionamiento_hora_apertura":"10:00:00","funcionamiento_hora_cierre":"21:00:00","local_telefono":"+56026313943","local_lat":"-33.319625","local_lng":"-71.410051","funcionamiento_dia":"martes","fk_region":"6","fk_comuna":"344","fk_localidad":"49"},{"fecha":"30-08-16","local_id":"194","local_nombre":"ALGARROBO","comuna_nombre":"ALGARROBO","localidad_nombre":"ALGARROBO","local_direccion":"AV.CARLOS ALESSANDRI 1990","funcionamiento_hora_apertura":"10:00:00","funcionamiento_hora_cierre":"21:00:00","local_telefono":"+56352483718","local_lat":"-33.361456","local_lng":"-71.666640","funcionamiento_dia":"martes","fk_region":"6","fk_comuna":"45","fk_localidad":"3"},{"fecha":"30-08-16","local_id":"195","local_nombre":"CRUZ VERDE","comuna_nombre":"ALGARROBO","localidad_nombre":"ALGARROBO","local_direccion":"AV. CARLOS ALESSANDRI N\u00ba 1915 - 1923","funcionamiento_hora_apertura":"09:00:00","funcionamiento_hora_cierre":"21:00:00","local_telefono":"+56352489065","local_lat":"-33.3620114","local_lng":"-71.6699213","funcionamiento_dia":"martes","fk_region":"6","fk_comuna":"45","fk_localidad":"3"},{"fecha":"30-08-16","local_id":"196","local_nombre":"CRUZ VERDE","comuna_nombre":"ALGARROBO","localidad_nombre":"ALGARROBO","local_direccion":"AV. IGNACIO CARRERA PINTO ESQUINA DR. GUILLERMO M\u00dcCKE","funcionamiento_hora_apertura":"08:30:00","funcionamiento_hora_cierre":"22:00:00","local_telefono":"+56352481876","local_lat":"-33.369083","local_lng":"-71.669167","funcionamiento_dia":"martes","fk_region":"6","fk_comuna":"45","fk_localidad":"3"},{"fecha":"30-08-16","local_id":"197","local_nombre":"FARMASOL","comuna_nombre":"ALGARROBO","localidad_nombre":"ALGARROBO","local_direccion":"AV. CARLOS ALESSANDRI N\u00ba 1949","funcionamiento_hora_apertura":"10:00:00","funcionamiento_hora_cierre":"21:00:00","local_telefono":"+56352484044","local_lat":"-33.361103","local_lng":"-71.666135","funcionamiento_dia":"martes","fk_region":"6","fk_comuna":"45","fk_localidad":"3"},{"fecha":"30-08-16","local_id":"198","local_nombre":"GALVEZ","comuna_nombre":"ALGARROBO","localidad_nombre":"ALGARROBO","local_direccion":"LUZ DIVINA SITIO N\u00ba 5","funcionamiento_hora_apertura":"09:30:00","funcionamiento_hora_cierre":"21:30:00","local_telefono":"+5635sin tel\u00e9fono","local_lat":"-33.3724856","local_lng":"-71.66703259999997","funcionamiento_dia":"martes","fk_region":"6","fk_comuna":"45","fk_localidad":"3"},{"fecha":"30-08-16","local_id":"199","local_nombre":"CRUZ VERDE","comuna_nombre":"EL QUISCO","localidad_nombre":"EL QUISCO","local_direccion":"J.N. AGUIRRE N\u00ba 017","funcionamiento_hora_apertura":"09:00:00","funcionamiento_hora_cierre":"21:00:00","local_telefono":"+56352471987","local_lat":"-33.397303","local_lng":"-71.694493","funcionamiento_dia":"martes","fk_region":"6","fk_comuna":"51","fk_localidad":"9"},{"fecha":"30-08-16","local_id":"200","local_nombre":"EL QUISCO","comuna_nombre":"EL QUISCO","localidad_nombre":"EL QUISCO","local_direccion":"AV. ISIDORA DUBORNAIS N\u00ba 177","funcionamiento_hora_apertura":"09:00:00","funcionamiento_hora_cierre":"21:00:00","local_telefono":"+56352471182","local_lat":"-33.396812","local_lng":"-71.694688","funcionamiento_dia":"martes","fk_region":"6","fk_comuna":"51","fk_localidad":"9"},{"fecha":"30-08-16","local_id":"201","local_nombre":"REDFARMA","comuna_nombre":"EL QUISCO","localidad_nombre":"EL QUISCO","local_direccion":"ISIDORA DUBORNAIS N\u00b0 127","funcionamiento_hora_apertura":"10:00:00","funcionamiento_hora_cierre":"21:30:00","local_telefono":"+56352475022","local_lat":"-33.395735","local_lng":"-71.694742","funcionamiento_dia":"martes","fk_region":"6","fk_comuna":"51","fk_localidad":"9"},{"fecha":"30-08-16","local_id":"202","local_nombre":"AHUMADA","comuna_nombre":"EL QUISCO","localidad_nombre":"EL QUISCO","local_direccion":"AV. ISIDORO DUBOURNAIS N\u00b0195","funcionamiento_hora_apertura":"09:00:00","funcionamiento_hora_cierre":"21:00:00","local_telefono":"+56026313716","local_lat":"-33.398596","local_lng":"-71.698154","funcionamiento_dia":"martes","fk_region":"6","fk_comuna":"51","fk_localidad":"9"},{"fecha":"30-08-16","local_id":"203","local_nombre":"SAN ENRIQUE","comuna_nombre":"EL TABO","localidad_nombre":"El TABO","local_direccion":"SAN MARCOS N\u00ba793 LOCAL 01","funcionamiento_hora_apertura":"10:00:00","funcionamiento_hora_cierre":"20:00:00","local_telefono":"+56352469037","local_lat":"-33.4565716","local_lng":"-71.66234099999997","funcionamiento_dia":"martes","fk_region":"6","fk_comuna":"52","fk_localidad":"50"},{"fecha":"30-08-16","local_id":"204","local_nombre":"FARMASOL","comuna_nombre":"EL TABO","localidad_nombre":"El TABO","local_direccion":"ARTURO PRAT N\u00ba441","funcionamiento_hora_apertura":"10:30:00","funcionamiento_hora_cierre":"21:00:00","local_telefono":"+56352469865","local_lat":"-33.455864","local_lng":"-71.664381","funcionamiento_dia":"martes","fk_region":"6","fk_comuna":"52","fk_localidad":"50"},{"fecha":"30-08-16","local_id":"206","local_nombre":"CARTAGENA","comuna_nombre":"CARTAGENA","localidad_nombre":"CARTAGENA","local_direccion":"ALMIRANTE LATORRE N\u00ba80","funcionamiento_hora_apertura":"09:00:00","funcionamiento_hora_cierre":"21:00:00","local_telefono":"+5635450374","local_lat":"-33.5459976","local_lng":"-71.60255259999997","funcionamiento_dia":"martes","fk_region":"6","fk_comuna":"48","fk_localidad":"5"},{"fecha":"30-08-16","local_id":"207","local_nombre":"CRUZ VERDE","comuna_nombre":"CARTAGENA","localidad_nombre":"CARTAGENA","local_direccion":"AV. CARTAGENA N\u00b0313","funcionamiento_hora_apertura":"09:00:00","funcionamiento_hora_cierre":"21:00:00","local_telefono":"+56352451143","local_lat":"-33.546721","local_lng":"-71.602595","funcionamiento_dia":"martes","fk_region":"6","fk_comuna":"48","fk_localidad":"5"},{"fecha":"30-08-16","local_id":"208","local_nombre":"SAN SEBASTIAN","comuna_nombre":"CARTAGENA","localidad_nombre":"CARTAGENA","local_direccion":"CASANOVA N\u00ba 328","funcionamiento_hora_apertura":"10:00:00","funcionamiento_hora_cierre":"21:00:00","local_telefono":"+56352451357","local_lat":"-33.547208","local_lng":"-71.603057","funcionamiento_dia":"martes","fk_region":"6","fk_comuna":"48","fk_localidad":"5"},{"fecha":"30-08-16","local_id":"209","local_nombre":"AHUMADA","comuna_nombre":"SAN ANTONIO","localidad_nombre":"SAN ANTONIO","local_direccion":"BARROS LUCO N\u00ba 1399","funcionamiento_hora_apertura":"09:00:00","funcionamiento_hora_cierre":"22:00:00","local_telefono":"+56026313805","local_lat":"-33.591612","local_lng":"-71.613177","funcionamiento_dia":"martes","fk_region":"6","fk_comuna":"73","fk_localidad":"19"},{"fecha":"30-08-16","local_id":"210","local_nombre":"AHUMADA","comuna_nombre":"SAN ANTONIO","localidad_nombre":"SAN ANTONIO","local_direccion":"AV. CENTENARIO N\u00ba 68 - 72","funcionamiento_hora_apertura":"09:00:00","funcionamiento_hora_cierre":"21:00:00","local_telefono":"+56026313218","local_lat":"-33.580739","local_lng":"-71.612192","funcionamiento_dia":"martes","fk_region":"6","fk_comuna":"73","fk_localidad":"19"},{"fecha":"30-08-16","local_id":"211","local_nombre":"CRUZ VERDE","comuna_nombre":"SAN ANTONIO","localidad_nombre":"SAN ANTONIO","local_direccion":"AV. CENTENARIO N\u00ba 120","funcionamiento_hora_apertura":"09:00:00","funcionamiento_hora_cierre":"22:00:00","local_telefono":"+56352216549","local_lat":"-33.580452","local_lng":"-71.611332","funcionamiento_dia":"martes","fk_region":"6","fk_comuna":"73","fk_localidad":"19"},{"fecha":"30-08-16","local_id":"213","local_nombre":"CRUZ VERDE","comuna_nombre":"SAN ANTONIO","localidad_nombre":"SAN ANTONIO","local_direccion":"AV. PROVIDENCIA N\u00b0 196","funcionamiento_hora_apertura":"10:30:00","funcionamiento_hora_cierre":"20:30:00","local_telefono":"+56352280380","local_lat":"-33.612008","local_lng":"-71.610584","funcionamiento_dia":"martes","fk_region":"6","fk_comuna":"73","fk_localidad":"19"},{"fecha":"30-08-16","local_id":"214","local_nombre":"CRUZ VERDE","comuna_nombre":"SAN ANTONIO","localidad_nombre":"SAN ANTONIO","local_direccion":"LAURO BARROS N\u00ba250 LOCAL 1","funcionamiento_hora_apertura":"09:30:00","funcionamiento_hora_cierre":"20:00:00","local_telefono":"+56352353014","local_lat":"-33.580588","local_lng":"-71.608519","funcionamiento_dia":"martes","fk_region":"6","fk_comuna":"73","fk_localidad":"19"},{"fecha":"30-08-16","local_id":"215","local_nombre":"DR. SIMI","comuna_nombre":"SAN ANTONIO","localidad_nombre":"SAN ANTONIO","local_direccion":"PEDRO MONTT N\u00ba129 LOCAL 4","funcionamiento_hora_apertura":"09:00:00","funcionamiento_hora_cierre":"21:00:00","local_telefono":"+5635353167","local_lat":"-33.580020","local_lng":"-71.611449","funcionamiento_dia":"martes","fk_region":"6","fk_comuna":"73","fk_localidad":"19"},{"fecha":"30-08-16","local_id":"216","local_nombre":"MASTER","comuna_nombre":"SAN ANTONIO","localidad_nombre":"SAN ANTONIO","local_direccion":"LUIS REUS N\u00aa 273 L.4","funcionamiento_hora_apertura":"10:00:00","funcionamiento_hora_cierre":"21:30:00","local_telefono":"+56352588604","local_lat":"-33.588336","local_lng":"-71.608247","funcionamiento_dia":"martes","fk_region":"6","fk_comuna":"73","fk_localidad":"19"},{"fecha":"30-08-16","local_id":"217","local_nombre":"MINELY","comuna_nombre":"SAN ANTONIO","localidad_nombre":"SAN ANTONIO","local_direccion":"AV. PROVIDENCIA N\u00ba 121","funcionamiento_hora_apertura":"09:00:00","funcionamiento_hora_cierre":"21:00:00","local_telefono":"+5635282498","local_lat":"-33.611466","local_lng":"-71.611035","funcionamiento_dia":"martes","fk_region":"6","fk_comuna":"73","fk_localidad":"19"},{"fecha":"30-08-16","local_id":"218","local_nombre":"SALCOBRAND","comuna_nombre":"SAN ANTONIO","localidad_nombre":"SAN ANTONIO","local_direccion":"AV. CENTENARIO N\u00ba 102","funcionamiento_hora_apertura":"09:00:00","funcionamiento_hora_cierre":"21:30:00","local_telefono":"+5635224223300 anexo 5356","local_lat":"-33.580553","local_lng":"-71.611684","funcionamiento_dia":"martes","fk_region":"6","fk_comuna":"73","fk_localidad":"19"},{"fecha":"30-08-16","local_id":"219","local_nombre":"SALCOBRAND","comuna_nombre":"SAN ANTONIO","localidad_nombre":"SAN ANTONIO","local_direccion":"AV: PROVIDENCIA N\u00ba 102","funcionamiento_hora_apertura":"09:00:00","funcionamiento_hora_cierre":"21:00:00","local_telefono":"+5635224223300 anexo 5386","local_lat":"-33.611549","local_lng":"-71.610712","funcionamiento_dia":"martes","fk_region":"6","fk_comuna":"73","fk_localidad":"19"},{"fecha":"30-08-16","local_id":"221","local_nombre":"SAN NICOLAS","comuna_nombre":"SAN ANTONIO","localidad_nombre":"SAN ANTONIO","local_direccion":"AV. EL MOLO N\u00b0 139","funcionamiento_hora_apertura":"09:30:00","funcionamiento_hora_cierre":"20:30:00","local_telefono":"+56352235962","local_lat":"-33.595972","local_lng":"-71.611626","funcionamiento_dia":"martes","fk_region":"6","fk_comuna":"73","fk_localidad":"19"},{"fecha":"30-08-16","local_id":"222","local_nombre":"CENTRAL DE HOMEOPATIA SAN ANTONIO","comuna_nombre":"SAN ANTONIO","localidad_nombre":"SAN ANTONIO","local_direccion":"PEDRO MONTT N\u00ba 129 L - 3","funcionamiento_hora_apertura":"10:00:00","funcionamiento_hora_cierre":"20:00:00","local_telefono":"+56352213535","local_lat":"-33.5798312","local_lng":"-71.61142740000003","funcionamiento_dia":"martes","fk_region":"6","fk_comuna":"73","fk_localidad":"19"},{"fecha":"30-08-16","local_id":"224","local_nombre":"SALCOBRAND","comuna_nombre":"SAN ANTONIO","localidad_nombre":"SAN ANTONIO","local_direccion":"PASEO BELLAMAR N\u00b0 22 LOCAL 14","funcionamiento_hora_apertura":"10:00:00","funcionamiento_hora_cierre":"22:00:00","local_telefono":"+5635224223300 anexo 5372","local_lat":"-33.581533","local_lng":"-71.613733","funcionamiento_dia":"martes","fk_region":"6","fk_comuna":"73","fk_localidad":"19"},{"fecha":"30-08-16","local_id":"225","local_nombre":"CRUZ VERDE","comuna_nombre":"SAN ANTONIO","localidad_nombre":"SAN ANTONIO","local_direccion":"AV. RAMON BARROS LUCO N\u00b0 105 LOC. 10","funcionamiento_hora_apertura":"10:00:00","funcionamiento_hora_cierre":"21:00:00","local_telefono":"+56352235038","local_lat":"-33.581533","local_lng":"-71.613733","funcionamiento_dia":"martes","fk_region":"6","fk_comuna":"73","fk_localidad":"19"},{"fecha":"30-08-16","local_id":"227","local_nombre":"CRUZ VERDE","comuna_nombre":"SANTO DOMINGO","localidad_nombre":"SANTO DOMINGO","local_direccion":"AV. EL GOLF N\u00ba05","funcionamiento_hora_apertura":"09:00:00","funcionamiento_hora_cierre":"21:00:00","local_telefono":"+56352442803","local_lat":"-33.640457","local_lng":"-71.626782","funcionamiento_dia":"martes","fk_region":"6","fk_comuna":"77","fk_localidad":"39"},{"fecha":"30-08-16","local_id":"228","local_nombre":"CRUZ VERDE","comuna_nombre":"ISLA DE PASCUA","localidad_nombre":"ISLA DE PASCUA","local_direccion":"ATAMU TEKENA S\/N","funcionamiento_hora_apertura":"08:30:00","funcionamiento_hora_cierre":"22:00:00","local_telefono":"+56322551541","local_lat":"-27.154241","local_lng":"-109.432605","funcionamiento_dia":"martes","fk_region":"6","fk_comuna":"54","fk_localidad":"11"},{"fecha":"30-08-16","local_id":"241","local_nombre":"NUEVA","comuna_nombre":"VALPARAISO","localidad_nombre":"PLAN VALPARAISO","local_direccion":"CONDELL 1472","funcionamiento_hora_apertura":"10:00:00","funcionamiento_hora_cierre":"20:00:00","local_telefono":"+56322239732","local_lat":"-33.0459913","local_lng":"-71.62184680000001","funcionamiento_dia":"martes","fk_region":"6","fk_comuna":"78","fk_localidad":"2"},{"fecha":"30-08-16","local_id":"243","local_nombre":"LAS REJAS","comuna_nombre":"PUCHUNCAVI","localidad_nombre":"PUCHUNCAVI","local_direccion":"PEDRO AGUIRRE CERDA 21 - VENTANAS","funcionamiento_hora_apertura":"09:30:00","funcionamiento_hora_cierre":"21:30:00","local_telefono":"+56322796910","local_lat":"-32.7411829","local_lng":"-71.4858171","funcionamiento_dia":"martes","fk_region":"6","fk_comuna":"67","fk_localidad":"30"},{"fecha":"30-08-16","local_id":"245","local_nombre":"CABILDO","comuna_nombre":"CABILDO","localidad_nombre":"CABILDO","local_direccion":"AV. HUMERES N\u00b0 753","funcionamiento_hora_apertura":"09:00:00","funcionamiento_hora_cierre":"21:00:00","local_telefono":"+5633332763055","local_lat":"-32.426542","local_lng":"-71.066929","funcionamiento_dia":"martes","fk_region":"6","fk_comuna":"46","fk_localidad":"4"},{"fecha":"30-08-16","local_id":"246","local_nombre":"ECOFARMACIAS","comuna_nombre":"CABILDO","localidad_nombre":"CABILDO","local_direccion":"AV. HUMERES N\u00b0 688","funcionamiento_hora_apertura":"09:30:00","funcionamiento_hora_cierre":"21:30:00","local_telefono":"+56332761259","local_lat":"-32.42683825574887","local_lng":"-71.06748415952461","funcionamiento_dia":"martes","fk_region":"6","fk_comuna":"46","fk_localidad":"4"},{"fecha":"30-08-16","local_id":"247","local_nombre":"NUEVA CABILDO","comuna_nombre":"CABILDO","localidad_nombre":"CABILDO","local_direccion":"AV. HUMERES N\u00b0571","funcionamiento_hora_apertura":"09:30:00","funcionamiento_hora_cierre":"21:00:00","local_telefono":"+56332762981","local_lat":"-32.4267726","local_lng":"-71.06738760000002","funcionamiento_dia":"martes","fk_region":"6","fk_comuna":"46","fk_localidad":"4"},{"fecha":"30-08-16","local_id":"248","local_nombre":"CRUZ VERDE","comuna_nombre":"CABILDO","localidad_nombre":"CABILDO","local_direccion":"AV. HUMERES N\u00b0 552","funcionamiento_hora_apertura":"09:00:00","funcionamiento_hora_cierre":"21:00:00","local_telefono":"+56332763352","local_lat":"-32.4267726","local_lng":"-71.06738760000002","funcionamiento_dia":"martes","fk_region":"6","fk_comuna":"46","fk_localidad":"4"},{"fecha":"30-08-16","local_id":"249","local_nombre":"FARMAVIDA","comuna_nombre":"CATEMU","localidad_nombre":"CATEMU","local_direccion":"BORJA GARCIA HUIDOBRO N\u00b0 051","funcionamiento_hora_apertura":"09:30:00","funcionamiento_hora_cierre":"21:00:00","local_telefono":"+56342631035","local_lat":"-32.778097","local_lng":"-70.962502","funcionamiento_dia":"martes","fk_region":"6","fk_comuna":"49","fk_localidad":"7"},{"fecha":"30-08-16","local_id":"250","local_nombre":"CRUZ VERDE","comuna_nombre":"LA LIGUA","localidad_nombre":"LA LIGUA","local_direccion":"PEDRO POLANCO N\u00b0 263","funcionamiento_hora_apertura":"09:00:00","funcionamiento_hora_cierre":"22:00:00","local_telefono":"+56332714811","local_lat":"-32.4483113","local_lng":"-71.23108289999999","funcionamiento_dia":"martes","fk_region":"6","fk_comuna":"58","fk_localidad":"14"},{"fecha":"30-08-16","local_id":"252","local_nombre":"DR. SIMI","comuna_nombre":"LA LIGUA","localidad_nombre":"LA LIGUA","local_direccion":"ORTIZ DE ROZAS N\u00b0 600","funcionamiento_hora_apertura":"09:00:00","funcionamiento_hora_cierre":"22:00:00","local_telefono":"+56333318","local_lat":"-32.448964","local_lng":"-71.232163","funcionamiento_dia":"martes","fk_region":"6","fk_comuna":"58","fk_localidad":"14"},{"fecha":"30-08-16","local_id":"253","local_nombre":"ECOFARMACIAS","comuna_nombre":"LA LIGUA","localidad_nombre":"LA LIGUA","local_direccion":"ORTIZ DE ROZAS N\u00b0 434","funcionamiento_hora_apertura":"09:00:00","funcionamiento_hora_cierre":"21:00:00","local_telefono":"+56332333468","local_lat":"-32.44901","local_lng":"-71.23034","funcionamiento_dia":"martes","fk_region":"6","fk_comuna":"58","fk_localidad":"14"},{"fecha":"30-08-16","local_id":"254","local_nombre":"ECOFARMACIAS","comuna_nombre":"LA LIGUA","localidad_nombre":"LA LIGUA","local_direccion":"ORTIZ DE ROZAS N\u00b0 498","funcionamiento_hora_apertura":"09:00:00","funcionamiento_hora_cierre":"22:30:00","local_telefono":"+56713253, 3","local_lat":"-32.44993","local_lng":"-71.22959","funcionamiento_dia":"martes","fk_region":"6","fk_comuna":"58","fk_localidad":"14"},{"fecha":"30-08-16","local_id":"255","local_nombre":"PORTALES","comuna_nombre":"LA LIGUA","localidad_nombre":"LA LIGUA","local_direccion":"AV. PORTALES N\u00b0 706","funcionamiento_hora_apertura":"09:00:00","funcionamiento_hora_cierre":"22:00:00","local_telefono":"+56716843","local_lat":"-32.44994","local_lng":"-71.23340","funcionamiento_dia":"martes","fk_region":"6","fk_comuna":"58","fk_localidad":"14"},{"fecha":"30-08-16","local_id":"256","local_nombre":"AHUMADA","comuna_nombre":"LA LIGUA","localidad_nombre":"LA LIGUA","local_direccion":"ORTIZ DE ROZAS 476","funcionamiento_hora_apertura":"09:00:00","funcionamiento_hora_cierre":"21:30:00","local_telefono":"+560226313557","local_lat":"-32.44998","local_lng":"-71.23096","funcionamiento_dia":"martes","fk_region":"6","fk_comuna":"58","fk_localidad":"14"},{"fecha":"30-08-16","local_id":"257","local_nombre":"AHUMADA","comuna_nombre":"LOS ANDES","localidad_nombre":"LOS ANDES","local_direccion":"AV. SANTA TERESA N\u00b0 683, L - 18","funcionamiento_hora_apertura":"09:00:00","funcionamiento_hora_cierre":"21:00:00","local_telefono":"+5633226313386","local_lat":"-32.83143688","local_lng":"-70.60199076","funcionamiento_dia":"martes","fk_region":"6","fk_comuna":"61","fk_localidad":"20"},{"fecha":"30-08-16","local_id":"258","local_nombre":"CRUZ VERDE","comuna_nombre":"LOS ANDES","localidad_nombre":"LOS ANDES","local_direccion":"AV. ARGENTINA N\u00b0 805, L-1020","funcionamiento_hora_apertura":"09:00:00","funcionamiento_hora_cierre":"21:00:00","local_telefono":"+5634800802800","local_lat":"-32.827153","local_lng":"-70.602659","funcionamiento_dia":"martes","fk_region":"6","fk_comuna":"61","fk_localidad":"20"},{"fecha":"30-08-16","local_id":"259","local_nombre":"CRUZ VERDE","comuna_nombre":"LOS ANDES","localidad_nombre":"LOS ANDES","local_direccion":"MAIPU N\u00b0 302","funcionamiento_hora_apertura":"09:00:00","funcionamiento_hora_cierre":"22:00:00","local_telefono":"+56342402955","local_lat":"-32.833812","local_lng":"-70.597375","funcionamiento_dia":"martes","fk_region":"6","fk_comuna":"61","fk_localidad":"20"},{"fecha":"30-08-16","local_id":"260","local_nombre":"DR. SIMI","comuna_nombre":"LOS ANDES","localidad_nombre":"LOS ANDES","local_direccion":"OHIGGINS 293","funcionamiento_hora_apertura":"09:00:00","funcionamiento_hora_cierre":"21:00:00","local_telefono":"+56343622","local_lat":"-32.834540","local_lng":"-70.597882","funcionamiento_dia":"martes","fk_region":"6","fk_comuna":"61","fk_localidad":"20"},{"fecha":"30-08-16","local_id":"261","local_nombre":"EL CONDOR","comuna_nombre":"LOS ANDES","localidad_nombre":"LOS ANDES","local_direccion":"ESMERALDA N\u00b0 443","funcionamiento_hora_apertura":"09:00:00","funcionamiento_hora_cierre":"21:00:00","local_telefono":"+56342421616","local_lat":"-32.833000","local_lng":"-70.599099","funcionamiento_dia":"martes","fk_region":"6","fk_comuna":"61","fk_localidad":"20"},{"fecha":"30-08-16","local_id":"263","local_nombre":"SALCOBRAND","comuna_nombre":"LOS ANDES","localidad_nombre":"LOS ANDES","local_direccion":"MAIPU N\u00b0332","funcionamiento_hora_apertura":"09:00:00","funcionamiento_hora_cierre":"21:00:00","local_telefono":"+56322403281","local_lat":"-32.831894","local_lng":"-70.596820","funcionamiento_dia":"martes","fk_region":"6","fk_comuna":"61","fk_localidad":"20"},{"fecha":"30-08-16","local_id":"264","local_nombre":"SALCOBRAND","comuna_nombre":"LOS ANDES","localidad_nombre":"LOS ANDES","local_direccion":"ESMERALDA N\u00b0 299","funcionamiento_hora_apertura":"09:00:00","funcionamiento_hora_cierre":"21:30:00","local_telefono":"+560224223300 anexo 5305","local_lat":"-32.833346","local_lng":"-70.597201","funcionamiento_dia":"martes","fk_region":"6","fk_comuna":"61","fk_localidad":"20"},{"fecha":"30-08-16","local_id":"265","local_nombre":"SALCOBRAND","comuna_nombre":"LOS ANDES","localidad_nombre":"LOS ANDES","local_direccion":"AV. ARGENTINA N\u00b0 805, L-1013","funcionamiento_hora_apertura":"09:00:00","funcionamiento_hora_cierre":"21:00:00","local_telefono":"+560224223300 anexo 5410","local_lat":"-32.827140","local_lng":"-70.602581","funcionamiento_dia":"martes","fk_region":"6","fk_comuna":"61","fk_localidad":"20"},{"fecha":"30-08-16","local_id":"266","local_nombre":"SALCOBRAND","comuna_nombre":"LOS ANDES","localidad_nombre":"LOS ANDES","local_direccion":"AV. SANTA TERESA N\u00b0 683, L-104-106","funcionamiento_hora_apertura":"10:00:00","funcionamiento_hora_cierre":"21:00:00","local_telefono":"+560224223300 anexo 5251","local_lat":"-32.835184","local_lng":"-70.602206","funcionamiento_dia":"martes","fk_region":"6","fk_comuna":"61","fk_localidad":"20"},{"fecha":"30-08-16","local_id":"267","local_nombre":"SANTA ROSA","comuna_nombre":"LOS ANDES","localidad_nombre":"LOS ANDES","local_direccion":"O'HIGGINS N\u00b0 298","funcionamiento_hora_apertura":"09:00:00","funcionamiento_hora_cierre":"21:00:00","local_telefono":"+563424","local_lat":"-32.834511","local_lng":"-70.597738","funcionamiento_dia":"martes","fk_region":"6","fk_comuna":"61","fk_localidad":"20"},{"fecha":"30-08-16","local_id":"268","local_nombre":"KNOP","comuna_nombre":"LOS ANDES","localidad_nombre":"LOS ANDES","local_direccion":"MAIPU N\u00b0254","funcionamiento_hora_apertura":"10:00:00","funcionamiento_hora_cierre":"20:00:00","local_telefono":"+56342510928","local_lat":"-32.831841","local_lng":"-70.596880","funcionamiento_dia":"martes","fk_region":"6","fk_comuna":"61","fk_localidad":"20"},{"fecha":"30-08-16","local_id":"269","local_nombre":"AHUMADA","comuna_nombre":"LOS ANDES","localidad_nombre":"LOS ANDES","local_direccion":"ESMERALDA N\u00b0 315","funcionamiento_hora_apertura":"09:00:00","funcionamiento_hora_cierre":"21:00:00","local_telefono":"+56026313652","local_lat":"-32.833248","local_lng":"-70.597591","funcionamiento_dia":"martes","fk_region":"6","fk_comuna":"61","fk_localidad":"20"},{"fecha":"30-08-16","local_id":"270","local_nombre":"CRUZ VERDE","comuna_nombre":"LOS ANDES","localidad_nombre":"LOS ANDES","local_direccion":"MAIPU N\u00b0320","funcionamiento_hora_apertura":"09:00:00","funcionamiento_hora_cierre":"22:00:00","local_telefono":"+56342345168","local_lat":"-32.8336704","local_lng":"-70.59737940000002","funcionamiento_dia":"martes","fk_region":"6","fk_comuna":"61","fk_localidad":"20"},{"fecha":"30-08-16","local_id":"272","local_nombre":"SAN JOSE PAPUDO","comuna_nombre":"PAPUDO","localidad_nombre":"PAPUDO","local_direccion":"CHORRILLOS 93","funcionamiento_hora_apertura":"10:00:00","funcionamiento_hora_cierre":"20:30:00","local_telefono":"+5633+56999987723","local_lat":"-32.5085956","local_lng":"-71.44625559999997","funcionamiento_dia":"martes","fk_region":"6","fk_comuna":"65","fk_localidad":"25"},{"fecha":"30-08-16","local_id":"274","local_nombre":"ANTONIO","comuna_nombre":"PUTAENDO","localidad_nombre":"PUTAENDO","local_direccion":"A. CAMUS 108","funcionamiento_hora_apertura":"09:00:00","funcionamiento_hora_cierre":"21:00:00","local_telefono":"+56342501989","local_lat":"-32.62579736890412","local_lng":"-70.71732803121341","funcionamiento_dia":"martes","fk_region":"6","fk_comuna":"68","fk_localidad":"31"},{"fecha":"30-08-16","local_id":"275","local_nombre":"FARMAVIDA","comuna_nombre":"PUTAENDO","localidad_nombre":"PUTAENDO","local_direccion":"COMERCIO N\u00b0 478","funcionamiento_hora_apertura":"09:00:00","funcionamiento_hora_cierre":"21:00:00","local_telefono":"+5634+56996490798","local_lat":"-32.6310476","local_lng":"-70.71763329999999","funcionamiento_dia":"martes","fk_region":"6","fk_comuna":"68","fk_localidad":"31"},{"fecha":"30-08-16","local_id":"276","local_nombre":"AHUMADA","comuna_nombre":"SAN FELIPE","localidad_nombre":"SAN FELIPE","local_direccion":"PRAT N\u00b0 798","funcionamiento_hora_apertura":"09:00:00","funcionamiento_hora_cierre":"21:00:00","local_telefono":"+560226313149","local_lat":"-32.750059","local_lng":"-70.725647","funcionamiento_dia":"martes","fk_region":"6","fk_comuna":"75","fk_localidad":"37"},{"fecha":"30-08-16","local_id":"277","local_nombre":"CRUZ VERDE","comuna_nombre":"SAN FELIPE","localidad_nombre":"SAN FELIPE","local_direccion":"MERCED N\u00b0 176","funcionamiento_hora_apertura":"08:30:00","funcionamiento_hora_cierre":"21:30:00","local_telefono":"+56342514734","local_lat":"-32.751418","local_lng":"-70.725070","funcionamiento_dia":"martes","fk_region":"6","fk_comuna":"75","fk_localidad":"37"},{"fecha":"30-08-16","local_id":"278","local_nombre":"CRUZ VERDE","comuna_nombre":"SAN FELIPE","localidad_nombre":"SAN FELIPE","local_direccion":"PRAT N\u00b0 199 B","funcionamiento_hora_apertura":"09:00:00","funcionamiento_hora_cierre":"22:00:00","local_telefono":"+56342510068","local_lat":"-32.750078","local_lng":"-70.725505","funcionamiento_dia":"martes","fk_region":"6","fk_comuna":"75","fk_localidad":"37"},{"fecha":"30-08-16","local_id":"280","local_nombre":"DR. SIMI","comuna_nombre":"SAN FELIPE","localidad_nombre":"SAN FELIPE","local_direccion":"PORTUS N\u00b0 239","funcionamiento_hora_apertura":"09:00:00","funcionamiento_hora_cierre":"21:00:00","local_telefono":"+56517775","local_lat":"-32.751488","local_lng":"-70.723209","funcionamiento_dia":"martes","fk_region":"6","fk_comuna":"75","fk_localidad":"37"},{"fecha":"30-08-16","local_id":"281","local_nombre":"NUEVA MODERNA","comuna_nombre":"SAN FELIPE","localidad_nombre":"SAN FELIPE","local_direccion":"PRAT N\u00b0 144 B","funcionamiento_hora_apertura":"09:00:00","funcionamiento_hora_cierre":"21:00:00","local_telefono":"+56511659","local_lat":"-32.750518","local_lng":"-70.723875","funcionamiento_dia":"martes","fk_region":"6","fk_comuna":"75","fk_localidad":"37"},{"fecha":"30-08-16","local_id":"282","local_nombre":"SALCOBRAND","comuna_nombre":"SAN FELIPE","localidad_nombre":"SAN FELIPE","local_direccion":"COIMAS N\u00b0 210","funcionamiento_hora_apertura":"08:00:00","funcionamiento_hora_cierre":"22:00:00","local_telefono":"+56518407","local_lat":"-32.750776","local_lng":"-70.724374","funcionamiento_dia":"martes","fk_region":"6","fk_comuna":"75","fk_localidad":"37"},{"fecha":"30-08-16","local_id":"283","local_nombre":"CRUZ VERDE","comuna_nombre":"SAN FELIPE","localidad_nombre":"SAN FELIPE","local_direccion":"O'HIGGINS N\u00b0 1150, L - 1030","funcionamiento_hora_apertura":"08:30:00","funcionamiento_hora_cierre":"22:00:00","local_telefono":"+56532399","local_lat":"-32.756443","local_lng":"-70.723456","funcionamiento_dia":"martes","fk_region":"6","fk_comuna":"75","fk_localidad":"37"},{"fecha":"30-08-16","local_id":"284","local_nombre":"KNOP","comuna_nombre":"SAN FELIPE","localidad_nombre":"SAN FELIPE","local_direccion":"PRAT N\u00b0 245","funcionamiento_hora_apertura":"10:00:00","funcionamiento_hora_cierre":"20:00:00","local_telefono":"+5634","local_lat":"-32.749853","local_lng":"-70.726642","funcionamiento_dia":"martes","fk_region":"6","fk_comuna":"75","fk_localidad":"37"},{"fecha":"30-08-16","local_id":"285","local_nombre":"SALCOBRAND","comuna_nombre":"SAN FELIPE","localidad_nombre":"SAN FELIPE","local_direccion":"PRAT N\u00b0 213 - 215","funcionamiento_hora_apertura":"09:00:00","funcionamiento_hora_cierre":"21:00:00","local_telefono":"+5634950021150","local_lat":"-32.749991","local_lng":"-70.725983","funcionamiento_dia":"martes","fk_region":"6","fk_comuna":"75","fk_localidad":"37"},